timestamp,TimeUS,Lat,Lng,Alt,RelHomeAlt,RelOriginAlt
1590578543.02007198,41634173,57.6432,11.863000099999999,-0.029999999329447746,-0.13881728053092957,-0.13881728053092957
1590578543.06005597,41674157,57.6431999,11.863000099999999,-0.029999999329447746,-0.13796931505203247,-0.13796931505203247
1590578543.10003996,41714141,57.6432,11.863000099999999,-0.029999999329447746,-0.13775543868541718,-0.13775543868541718
1590578543.14002419,41754125,57.6431999,11.863000099999999,-0.029999999329447746,-0.13758142292499542,-0.13758142292499542
1590578543.18000817,41794109,57.6431999,11.863000099999999,-0.029999999329447746,-0.13755330443382263,-0.13755330443382263
1590578543.21999216,41834093,57.6431999,11.863000099999999,-0.029999999329447746,-0.13764482736587524,-0.13764482736587524
1590578543.25997615,41874077,57.6431999,11.863000099999999,-0.029999999329447746,-0.13774169981479645,-0.13774169981479645
1590578543.29996014,41914061,57.6431999,11.863000099999999,-0.029999999329447746,-0.13856306672096252,-0.13856306672096252
1590578543.33994412,41954045,57.6431999,11.8630002,-0.029999999329447746,-0.1392999142408371,-0.1392999142408371
1590578543.37992811,41994029,57.6431999,11.8630002,-0.029999999329447746,-0.13966341316699982,-0.13966341316699982
1590578543.41991210,42034013,57.6431999,11.8630002,-0.029999999329447746,-0.13972359895706177,-0.13972359895706177
1590578543.45989609,42073997,57.6432,11.8630002,-0.029999999329447746,-0.13979214429855347,-0.13979214429855347
1590578543.49988008,42113981,57.6432,11.8630002,-0.029999999329447746,-0.13885299861431122,-0.13885299861431122
1590578543.53986406,42153965,57.6432,11.8630002,-0.029999999329447746,-0.13804909586906433,-0.13804909586906433
1590578543.57984805,42193949,57.6432,11.8630002,-0.029999999329447746,-0.13783884048461914,-0.13783884048461914
1590578543.61983204,42233933,57.643200099999994,11.8630002,-0.029999999329447746,-0.1381063163280487,-0.1381063163280487
1590578543.65981603,42273917,57.643200199999995,11.8630002,-0.029999999329447746,-0.1383313238620758,-0.1383313238620758
1590578543.69980001,42313901,57.6432004,11.8630002,-0.029999999329447746,-0.13820411264896393,-0.13820411264896393
1590578543.73978400,42353885,57.6432006,11.8630002,-0.029999999329447746,-0.13806334137916565,-0.13806334137916565
1590578543.77976799,42393869,57.6432009,11.8630002,-0.029999999329447746,-0.13839180767536163,-0.13839180767536163
1590578543.81975198,42433853,57.6432012,11.8630002,-0.029999999329447746,-0.13908663392066956,-0.13908663392066956
1590578543.85973597,42473837,57.6432016,11.8630002,-0.029999999329447746,-0.13962961733341217,-0.13962961733341217
1590578543.89971995,42513821,57.643202099999996,11.8630002,-0.03999999910593033,-0.14086394011974335,-0.14086394011974335
1590578543.93970418,42553805,57.643202599999995,11.8630002,-0.03999999910593033,-0.14184926450252533,-0.14184926450252533
1590578543.97968817,42593789,57.643203299999996,11.8630002,-0.03999999910593033,-0.14230701327323914,-0.14230701327323914
1590578544.01967216,42633773,57.643204,11.8630002,-0.03999999910593033,-0.1423073410987854,-0.1423073410987854
1590578544.05965614,42673757,57.6432049,11.8630002,-0.03999999910593033,-0.14216752350330353,-0.14216752350330353
1590578544.09964013,42713741,57.6432058,11.8630002,-0.03999999910593033,-0.14102858304977417,-0.14102858304977417
1590578544.13962412,42753725,57.643206799999994,11.8630002,-0.029999999329447746,-0.13983803987503052,-0.13983803987503052
1590578544.17960811,42793709,57.643207999999994,11.8630002,-0.029999999329447746,-0.1388017237186432,-0.1388017237186432
1590578544.21959209,42833693,57.643209299999995,11.8630003,-0.029999999329447746,-0.1378556787967682,-0.1378556787967682
1590578544.25957608,42873677,57.6432107,11.8630003,-0.029999999329447746,-0.13674670457839966,-0.13674670457839966
1590578544.29956007,42913661,57.6432122,11.8630003,-0.029999999329447746,-0.1353481113910675,-0.1353481113910675
1590578544.33954406,42953645,57.6432139,11.8630003,-0.029999999329447746,-0.13374796509742737,-0.13374796509742737
1590578544.37952805,42993629,57.6432158,11.8630003,-0.029999999329447746,-0.13156305253505707,-0.13156305253505707
1590578544.41951203,43033613,57.643217699999994,11.8630003,-0.019999999552965164,-0.1288553774356842,-0.1288553774356842
1590578544.45949602,43073597,57.6432199,11.8630003,-0.019999999552965164,-0.12600548565387726,-0.12600548565387726
1590578544.49948001,43113581,57.643222099999996,11.863000399999999,-0.019999999552965164,-0.12340456992387772,-0.12340456992387772
1590578544.53946400,43153565,57.643224499999995,11.863000399999999,-0.019999999552965164,-0.12051001936197281,-0.12051001936197281
1590578544.57944798,43193549,57.6432271,11.863000399999999,-0.009999999776482582,-0.11750037223100662,-0.11750037223100662
1590578544.61943197,43233533,57.6432298,11.863000399999999,-0.009999999776482582,-0.11434053629636765,-0.11434053629636765
1590578544.65941596,43273517,57.6432327,11.863000399999999,-0.009999999776482582,-0.11084254831075668,-0.11084254831075668
1590578544.69939995,43313501,57.6432356,11.863000399999999,0.0,-0.1079089567065239,-0.1079089567065239
1590578544.73938417,43353485,57.6432387,11.863000399999999,0.0,-0.10445858538150787,-0.10445858538150787
1590578544.78020096,43394302,57.643242099999995,11.863000399999999,0.0,-0.10027427226305008,-0.10027427226305008
1590578544.82018518,43434286,57.6432455,11.863000399999999,0.0,-0.0956173986196518,-0.0956173986196518
1590578544.86016917,43474270,57.643249,11.8630005,0.0,-0.09056404232978821,-0.09056404232978821
1590578544.90015316,43514254,57.6432526,11.8630005,0.009999999776482582,-0.08671139925718307,-0.08671139925718307
1590578544.94013715,43554238,57.6432564,11.8630005,0.009999999776482582,-0.08221786469221115,-0.08221786469221115
1590578544.98012114,43594222,57.643260299999994,11.8630005,0.019999999552965164,-0.07702261954545975,-0.07702261954545975
1590578545.02010512,43634206,57.6432643,11.8630005,0.019999999552965164,-0.0707857757806778,-0.0707857757806778
1590578545.06008911,43674190,57.6432685,11.8630005,0.029999999329447746,-0.06320381909608841,-0.06320381909608841
1590578545.10007310,43714174,57.6432727,11.8630005,0.03999999910593033,-0.05528914928436279,-0.05528914928436279
1590578545.14005709,43754158,57.6432771,11.8630005,0.04999999701976776,-0.04569234699010849,-0.04569234699010849
1590578545.18004107,43794142,57.6432815,11.8630005,0.05999999865889549,-0.03529150411486626,-0.03529150411486626
1590578545.22002506,43834126,57.6432861,11.8630005,0.07000000029802322,-0.024317435920238495,-0.024317435920238495
1590578545.26000905,43874110,57.643290799999995,11.863000399999999,0.07999999821186066,-0.01254267804324627,-0.01254267804324627
1590578545.29999304,43914094,57.643295599999995,11.863000399999999,0.08999999612569809,-0.0014784615486860275,-0.0014784615486860275
1590578545.33997703,43954078,57.643300499999995,11.863000399999999,0.09999999403953552,0.009906711056828499,0.009906711056828499
1590578545.37996101,43994062,57.643305399999996,11.863000399999999,0.11999999731779099,0.021220264956355095,0.021220264956355095
1590578545.41994500,44034046,57.6433105,11.863000399999999,0.12999999523162842,0.032356638461351395,0.032356638461351395
1590578545.45992899,44074030,57.643315699999995,11.863000399999999,0.14000000059604645,0.04352981969714165,0.04352981969714165
1590578545.49991298,44114014,57.6433209,11.863000399999999,0.14999999105930328,0.054001957178115845,0.054001957178115845
1590578545.53989697,44153998,57.643326099999996,11.863000399999999,0.1599999964237213,0.06421004235744476,0.06421004235744476
1590578545.57988095,44193982,57.643331499999995,11.863000399999999,0.17000000178813934,0.07455144822597504,0.07455144822597504
1590578545.61986518,44233966,57.643336999999995,11.8630003,0.17999999225139618,0.08475276082754135,0.08475276082754135
1590578545.65984917,44273950,57.643342499999996,11.8630003,0.1899999976158142,0.09505342692136765,0.09505342692136765
1590578545.69983315,44313934,57.6433482,11.8630003,0.19999998807907104,0.10423985123634338,0.10423985123634338
1590578545.73981714,44353918,57.643353899999994,11.8630003,0.20999999344348907,0.1136767566204071,0.1136767566204071
1590578545.77980113,44393902,57.6433596,11.8630003,0.2199999988079071,0.12308134883642197,0.12308134883642197
1590578545.81978512,44433886,57.643365499999994,11.8630003,0.22999998927116394,0.132482647895813,0.132482647895813
1590578545.85976911,44473870,57.6433713,11.8630002,0.23999999463558197,0.14202548563480377,0.14202548563480377
1590578545.89975309,44513854,57.643377199999996,11.8630002,0.23999999463558197,0.14967161417007446,0.14967161417007446
1590578545.93973708,44553838,57.643383199999995,11.8630002,0.25,0.15747523307800293,0.15747523307800293
1590578545.97972107,44593822,57.643389199999994,11.8630002,0.25999999046325684,0.1653010994195938,0.1653010994195938
1590578546.01970506,44633806,57.6433952,11.8630002,0.26999998092651367,0.17312291264533997,0.17312291264533997
1590578546.05968904,44673790,57.6434012,11.8630002,0.2800000011920929,0.18093661963939667,0.18093661963939667
1590578546.09967303,44713774,57.6434072,11.8630002,0.2800000011920929,0.18643388152122498,0.18643388152122498
1590578546.13965702,44753758,57.6434132,11.863000099999999,0.28999999165534973,0.1920715868473053,0.1920715868473053
1590578546.17964101,44793742,57.6434193,11.863000099999999,0.28999999165534973,0.19732628762722015,0.19732628762722015
1590578546.21962500,44833726,57.6434253,11.863000099999999,0.29999998211860657,0.2023240625858307,0.2023240625858307
1590578546.25960898,44873710,57.6434314,11.863000099999999,0.29999998211860657,0.20764222741127014,0.20764222741127014
1590578546.29959297,44913694,57.6434375,11.863000099999999,0.3100000023841858,0.2103576511144638,0.2103576511144638
1590578546.33957696,44953678,57.6434436,11.863000099999999,0.3100000023841858,0.2135297805070877,0.2135297805070877
1590578546.37956119,44993662,57.6434497,11.863000099999999,0.3100000023841858,0.21695184707641602,0.21695184707641602
1590578546.41954517,45033646,57.6434558,11.863000099999999,0.3199999928474426,0.22061091661453247,0.22061091661453247
1590578546.45952916,45073630,57.6434619,11.863000099999999,0.3199999928474426,0.22471292316913605,0.22471292316913605
1590578546.49951315,45113614,57.643468,11.863000099999999,0.3199999928474426,0.22748245298862457,0.22748245298862457
1590578546.53949714,45153598,57.6434741,11.863000099999999,0.32999998331069946,0.23067255318164825,0.23067255318164825
1590578546.57948112,45193582,57.6434803,11.863000099999999,0.32999998331069946,0.2343197762966156,0.2343197762966156
1590578546.61946511,45233566,57.6434864,11.863000099999999,0.32999998331069946,0.23836123943328857,0.23836123943328857
1590578546.65944910,45273550,57.6434925,11.863000099999999,0.3400000035762787,0.2426634281873703,0.2426634281873703
1590578546.69943309,45313534,57.643498699999995,11.863000099999999,0.3400000035762787,0.24585255980491638,0.24585255980491638
1590578546.73941708,45353518,57.643504799999995,11.863000099999999,0.3400000035762787,0.24931064248085022,0.24931064248085022
1590578546.77940106,45393502,57.643511,11.863000099999999,0.3499999940395355,0.2533901035785675,0.2533901035785675
1590578546.81938505,45433486,57.6435171,11.863000099999999,0.3499999940395355,0.2579692006111145,0.2579692006111145
1590578546.86020207,45474303,57.6435234,11.863000099999999,0.35999998450279236,0.2629428803920746,0.2629428803920746
1590578546.90018606,45514287,57.6435296,11.863000099999999,0.35999998450279236,0.26732686161994934,0.26732686161994934
1590578546.94017005,45554271,57.643535799999995,11.863000099999999,0.3700000047683716,0.2718733251094818,0.2718733251094818
1590578546.98015404,45594255,57.643542,11.863000099999999,0.3700000047683716,0.2762098014354706,0.2762098014354706
1590578547.02013803,45634239,57.6435481,11.863000099999999,0.3799999952316284,0.28037744760513306,0.28037744760513306
1590578547.06012201,45674223,57.6435543,11.863000099999999,0.3799999952316284,0.2847793698310852,0.2847793698310852
1590578547.10010600,45714207,57.6435605,11.863000099999999,0.3799999952316284,0.2880893647670746,0.2880893647670746
1590578547.14008999,45754191,57.6435667,11.863000099999999,0.38999998569488525,0.29164406657218933,0.29164406657218933
1590578547.18007398,45794175,57.643572899999995,11.863000099999999,0.38999998569488525,0.2955319881439209,0.2955319881439209
1590578547.22005796,45834159,57.643578999999995,11.863000099999999,0.38999998569488525,0.2996658682823181,0.2996658682823181
1590578547.26004195,45874143,57.6435852,11.863000099999999,0.3999999761581421,0.30399972200393677,0.30399972200393677
1590578547.30002618,45914127,57.6435914,11.863000099999999,0.3999999761581421,0.30695295333862305,0.30695295333862305
1590578547.34001017,45954111,57.6435976,11.863000099999999,0.4099999964237213,0.31027355790138245,0.31027355790138245
1590578547.37999415,45994095,57.643603799999994,11.863000099999999,0.4099999964237213,0.3141687214374542,0.3141687214374542
1590578547.41997814,46034079,57.643609999999995,11.863000099999999,0.4099999964237213,0.31853440403938293,0.31853440403938293
1590578547.45996213,46074063,57.6436162,11.863000099999999,0.41999998688697815,0.32309621572494507,0.32309621572494507
1590578547.49994612,46114047,57.6436224,11.863000099999999,0.41999998688697815,0.3278789818286896,0.3278789818286896
1590578547.53993011,46154031,57.6436286,11.863000099999999,0.429999977350235,0.3327760696411133,0.3327760696411133
1590578547.57991409,46194015,57.643634799999994,11.863000099999999,0.429999977350235,0.3380297124385834,0.3380297124385834
1590578547.61989808,46233999,57.6436408,11.8630002,0.4399999976158142,0.34346121549606323,0.34346121549606323
1590578547.65988207,46273983,57.643646999999994,11.8630002,0.4399999976158142,0.3491714596748352,0.3491714596748352
1590578547.69986606,46313967,57.643653199999996,11.8630002,0.44999998807907104,0.35438236594200134,0.35438236594200134
1590578547.73985004,46353951,57.6436594,11.8630002,0.44999998807907104,0.3597540259361267,0.3597540259361267
1590578547.77983403,46393935,57.6436656,11.8630002,0.4599999785423279,0.3657580018043518,0.3657580018043518
1590578547.81981802,46433919,57.6436718,11.8630002,0.4699999988079071,0.3722703754901886,0.3722703754901886
1590578547.85980201,46473903,57.6436779,11.8630002,0.4699999988079071,0.37879249453544617,0.37879249453544617
1590578547.89978600,46513887,57.643684099999994,11.8630002,0.47999998927116394,0.3849242925643921,0.3849242925643921
1590578547.93976998,46553871,57.6436904,11.8630002,0.4899999797344208,0.3910675048828125,0.3910675048828125
1590578547.97975397,46593855,57.6436966,11.8630002,0.4899999797344208,0.39695093035697937,0.39695093035697937
1590578548.01973796,46633839,57.6437028,11.8630002,0.5,0.4026813507080078,0.4026813507080078
1590578548.05972219,46673823,57.643708999999994,11.8630002,0.5,0.4086044728755951,0.4086044728755951
1590578548.09970617,46713807,57.643715199999995,11.8630002,0.5099999904632568,0.4140484631061554,0.4140484631061554
1590578548.13969016,46753791,57.6437214,11.8630002,0.5099999904632568,0.419630229473114,0.419630229473114
1590578548.17967415,46793775,57.6437276,11.8630002,0.5199999809265137,0.42509737610816956,0.42509737610816956
1590578548.21965814,46833759,57.6437339,11.8630002,0.5299999713897705,0.43049702048301697,0.43049702048301697
1590578548.25964212,46873743,57.643740099999995,11.8630002,0.5299999713897705,0.43606269359588623,0.43606269359588623
1590578548.29962611,46913727,57.6437463,11.8630002,0.5399999618530273,0.4408807158470154,0.4408807158470154
1590578548.33961010,46953711,57.6437525,11.8630002,0.5399999618530273,0.44588175415992737,0.44588175415992737
1590578548.37959409,46993695,57.6437588,11.8630002,0.550000011920929,0.4507603645324707,0.4507603645324707
1590578548.41957808,47033679,57.643764999999995,11.8630002,0.550000011920929,0.4555785357952118,0.4555785357952118
1590578548.45956206,47073663,57.643771199999996,11.8630002,0.5600000023841858,0.4606296718120575,0.4606296718120575
1590578548.49954605,47113647,57.6437775,11.8630002,0.5600000023841858,0.4654570519924164,0.4654570519924164
1590578548.53953004,47153631,57.6437837,11.8630002,0.5699999928474426,0.4704142212867737,0.4704142212867737
1590578548.57951403,47193615,57.643789999999996,11.8630002,0.5699999928474426,0.4755566716194153,0.4755566716194153
1590578548.61949801,47233599,57.6437962,11.8630002,0.5799999833106995,0.48083943128585815,0.48083943128585815
1590578548.65948200,47273583,57.6438025,11.8630002,0.5799999833106995,0.4862416684627533,0.4862416684627533
1590578548.69946599,47313567,57.643808699999994,11.8630002,0.5899999737739563,0.49210473895072937,0.49210473895072937
1590578548.73944998,47353551,57.643815,11.8630002,0.5899999737739563,0.4980292320251465,0.4980292320251465
1590578548.77943397,47393535,57.6438212,11.8630002,0.5999999642372131,0.5036740899085999,0.5036740899085999
1590578548.81941795,47433519,57.6438275,11.8630002,0.5999999642372131,0.509055495262146,0.509055495262146
1590578548.85940218,47473503,57.643833699999995,11.8630002,0.6100000143051147,0.5145153403282166,0.5145153403282166
1590578548.89938617,47513487,57.64384,11.8630002,0.6200000047683716,0.5206624865531921,0.5206624865531921
1590578548.94020295,47554304,57.643846399999994,11.8630002,0.6200000047683716,0.5270102024078369,0.5270102024078369
1590578548.98018718,47594288,57.6438527,11.8630002,0.6299999952316284,0.5336477160453796,0.5336477160453796
1590578549.02017117,47634272,57.6438589,11.8630002,0.6399999856948853,0.5406711101531982,0.5406711101531982
1590578549.06015515,47674256,57.6438652,11.8630002,0.6399999856948853,0.5476070046424866,0.5476070046424866
1590578549.10013914,47714240,57.643871399999995,11.8630002,0.6499999761581421,0.554986298084259,0.554986298084259
1590578549.14012313,47754224,57.6438777,11.8630002,0.6599999666213989,0.5622055530548096,0.5622055530548096
1590578549.18010712,47794208,57.6438839,11.8630002,0.6599999666213989,0.5692012310028076,0.5692012310028076
1590578549.22009110,47834192,57.643890199999994,11.8630002,0.6699999570846558,0.5760396718978882,0.5760396718978882
1590578549.26007509,47874176,57.643896399999996,11.8630002,0.6800000071525574,0.5828026533126831,0.5828026533126831
1590578549.30005908,47914160,57.6439027,11.8630002,0.6800000071525574,0.5897248387336731,0.5897248387336731
1590578549.34004307,47954144,57.6439089,11.8630002,0.6899999976158142,0.5965561866760254,0.5965561866760254
1590578549.38002706,47994128,57.643915199999995,11.8630002,0.699999988079071,0.6029696464538574,0.6029696464538574
1590578549.42001104,48034112,57.643921399999996,11.8630002,0.699999988079071,0.6090554594993591,0.6090554594993591
1590578549.45999503,48074096,57.6439277,11.8630002,0.7099999785423279,0.6151938438415527,0.6151938438415527
1590578549.49997902,48114080,57.6439339,11.8630002,0.7199999690055847,0.6216753721237183,0.6216753721237183
1590578549.53996301,48154064,57.643940199999996,11.8630002,0.7199999690055847,0.6281397342681885,0.6281397342681885
1590578549.57994699,48194048,57.6439464,11.8630002,0.7299999594688416,0.6350551247596741,0.6350551247596741
1590578549.61993098,48234032,57.6439526,11.8630002,0.7400000095367432,0.6423401832580566,0.6423401832580566
1590578549.65991497,48274016,57.643958899999994,11.8630002,0.7400000095367432,0.6494923233985901,0.6494923233985901
1590578549.69989896,48314000,57.643965099999996,11.8630002,0.75,0.6570807099342346,0.6570807099342346
1590578549.73988318,48353984,57.643971199999996,11.8630002,0.7599999904632568,0.6643269062042236,0.6643269062042236
1590578549.77986717,48393968,57.6439775,11.8630002,0.7699999809265137,0.6718061566352844,0.6718061566352844
1590578549.81985116,48433952,57.6439837,11.8630002,0.7699999809265137,0.6793204545974731,0.6793204545974731
1590578549.85983515,48473936,57.643989899999994,11.8630002,0.7799999713897705,0.6867038607597351,0.6867038607597351
1590578549.89981914,48513920,57.6439962,11.8630002,0.7899999618530273,0.6946297883987427,0.6946297883987427
1590578549.93980312,48553904,57.6440024,11.8630002,0.7999999523162842,0.7023167014122009,0.7023167014122009
1590578549.97978711,48593888,57.6440086,11.8630002,0.8100000023841858,0.7100462317466736,0.7100462317466736
1590578550.01977110,48633872,57.6440148,11.8630002,0.8100000023841858,0.7178122997283936,0.7178122997283936
1590578550.05975509,48673856,57.644020999999995,11.8630002,0.8199999928474426,0.725396990776062,0.725396990776062
1590578550.09973907,48713840,57.6440273,11.8630002,0.8299999833106995,0.7330119609832764,0.7330119609832764
1590578550.13972306,48753824,57.6440335,11.863000099999999,0.8399999737739563,0.740506112575531,0.740506112575531
1590578550.17970705,48793808,57.6440397,11.863000099999999,0.8399999737739563,0.7476205825805664,0.7476205825805664
1590578550.21969104,48833792,57.644045899999995,11.8630002,0.8499999642372131,0.7543928623199463,0.7543928623199463
1590578550.25967503,48873776,57.644052099999996,11.8630002,0.85999995470047,0.761128306388855,0.761128306388855
1590578550.29965901,48913760,57.6440583,11.8630002,0.85999995470047,0.7669536471366882,0.7669536471366882
1590578550.33964300,48953744,57.6440646,11.8630002,0.8700000047683716,0.7728608250617981,0.7728608250617981
1590578550.37962699,48993728,57.644070799999994,11.8630002,0.8700000047683716,0.7789321541786194,0.7789321541786194
1590578550.41961098,49033712,57.644076999999996,11.8630002,0.8799999952316284,0.7851257920265198,0.7851257920265198
1590578550.45959496,49073696,57.6440832,11.8630002,0.8899999856948853,0.7916197180747986,0.7916197180747986
1590578550.49957895,49113680,57.6440895,11.8630002,0.8999999761581421,0.8031355738639832,0.8031355738639832
1590578550.53956318,49153664,57.644095899999996,11.8630002,0.9199999570846558,0.8297023177146912,0.8297023177146912
1590578550.57954717,49193648,57.6441023,11.8630002,0.9799999594688416,0.8806055188179016,0.8806055188179016
1590578550.61953115,49233632,57.6441087,11.8630002,1.059999942779541,0.9629965424537659,0.9629965424537659
1590578550.65951514,49273616,57.6441151,11.8630002,1.1799999475479126,1.0814979076385498,1.0814979076385498
1590578550.69949913,49313600,57.6441215,11.8630002,1.3299999237060547,1.238379955291748,1.238379955291748
1590578550.73948312,49353584,57.6441279,11.8630002,1.5299999713897705,1.4322696924209595,1.4322696924209595
1590578550.77946711,49393568,57.644134199999996,11.8630002,1.7599999904632568,1.6611199378967285,1.6611199378967285
1590578550.81945109,49433552,57.6441404,11.8630002,2.0199999809265137,1.9217053651809692,1.9217053651809692
1590578550.85943508,49473536,57.6441465,11.8630002,2.299999952316284,2.209998369216919,2.209998369216919
1590578550.89941907,49513520,57.6441525,11.8630002,2.5999999046325684,2.508209466934204,2.508209466934204
1590578550.93940306,49553504,57.644158399999995,11.863000099999999,2.919999837875366,2.827695608139038,2.827695608139038
1590578550.97938704,49593488,57.6441641,11.863000099999999,3.259999990463257,3.165789842605591,3.165789842605591
1590578551.02020407,49634305,57.644169999999995,11.863000099999999,3.619999885559082,3.528289794921875,3.528289794921875
1590578551.06018806,49674289,57.6441756,11.863000099999999,3.990000009536743,3.8936233520507812,3.8936233520507812
1590578551.10017204,49714273,57.6441811,11.863000099999999,4.349999904632568,4.259680271148682,4.259680271148682
1590578551.14015603,49754257,57.6441866,11.863000099999999,4.730000019073486,4.633845806121826,4.633845806121826
1590578551.18014002,49794241,57.6441921,11.863,5.109999656677246,5.0159759521484375,5.0159759521484375
1590578551.22012401,49834225,57.6441975,11.863,5.5,5.4042181968688965,5.4042181968688965
1590578551.26010799,49874209,57.644202899999996,11.863,5.889999866485596,5.795594215393066,5.795594215393066
1590578551.30009198,49914193,57.644208199999994,11.863,6.279999732971191,6.188967227935791,6.188967227935791
1590578551.34007597,49954177,57.6442136,11.863,6.679999828338623,6.58289909362793,6.58289909362793
1590578551.38005996,49994161,57.6442189,11.863,7.069999694824219,6.978320121765137,6.978320121765137
1590578551.42004418,50034145,57.6442242,11.8629999,7.46999979019165,7.374245643615723,7.374245643615723
1590578551.46002817,50074129,57.644229499999994,11.8629999,7.859999656677246,7.768259525299072,7.768259525299072
1590578551.50001216,50114113,57.6442348,11.862999799999999,8.260000228881836,8.164345741271973,8.164345741271973
1590578551.53999615,50154097,57.6442401,11.862999799999999,8.649999618530273,8.55705738067627,8.55705738067627
1590578551.57998013,50194081,57.644245399999996,11.8629997,9.039999961853027,8.948602676391602,8.948602676391602
1590578551.61996412,50234065,57.6442507,11.8629997,9.429999351501465,9.338149070739746,9.338149070739746
1590578551.65994811,50274049,57.6442561,11.8629996,9.819999694824219,9.722810745239258,9.722810745239258
1590578551.69993210,50314033,57.6442614,11.8629996,10.199999809265137,10.109026908874512,10.109026908874512
1590578551.73991609,50354017,57.644266699999996,11.862999499999999,10.579999923706055,10.489587783813477,10.489587783813477
1590578551.77990007,50394001,57.644272,11.862999499999999,10.960000038146973,10.867106437683105,10.867106437683105
1590578551.81988406,50433985,57.6442772,11.8629994,11.329999923706055,11.232075691223145,11.232075691223145
1590578551.85986805,50473969,57.644282499999996,11.8629994,11.699999809265137,11.600143432617188,11.600143432617188
1590578551.89985204,50513953,57.6442878,11.8629993,12.059999465942383,11.969627380371094,11.969627380371094
1590578551.93983603,50553937,57.6442932,11.8629993,12.429999351501465,12.331960678100586,12.331960678100586
1590578551.97982001,50593921,57.6442985,11.862999199999999,12.779999732971191,12.689568519592285,12.689568519592285
1590578552.01980400,50633905,57.6443039,11.862999199999999,13.139999389648438,13.041543960571289,13.041543960571289
1590578552.05978799,50673889,57.644309299999996,11.8629991,13.479999542236328,13.38512134552002,13.38512134552002
1590578552.09977198,50713873,57.644314699999995,11.8629991,13.819999694824219,13.72636890411377,13.72636890411377
1590578552.13975596,50753857,57.644320099999995,11.862999,14.149999618530273,14.058011054992676,14.058011054992676
1590578552.17973995,50793841,57.644325599999995,11.862999,14.479999542236328,14.382408142089844,14.382408142089844
1590578552.21972418,50833825,57.644331099999995,11.862999,14.789999961853027,14.69902515411377,14.69902515411377
1590578552.25970817,50873809,57.644336599999995,11.8629989,15.09999942779541,15.005145072937012,15.005145072937012
1590578552.29969215,50913793,57.644342099999996,11.8629989,15.399999618530273,15.308085441589355,15.308085441589355
1590578552.33967614,50953777,57.6443477,11.8629988,15.699999809265137,15.600013732910156,15.600013732910156
1590578552.37966013,50993761,57.6443533,11.8629988,15.979999542236328,15.88352108001709,15.88352108001709
1590578552.41964412,51033745,57.6443589,11.8629987,16.25,16.158769607543945,16.158769607543945
1590578552.45962811,51073729,57.644364599999996,11.8629987,16.520000457763672,16.423858642578125,16.423858642578125
1590578552.49961209,51113713,57.6443702,11.8629987,16.779998779296875,16.686206817626953,16.686206817626953
1590578552.53959608,51153697,57.6443759,11.8629986,17.029998779296875,16.939027786254883,16.939027786254883
1590578552.57958007,51193681,57.6443817,11.8629986,17.279998779296875,17.184892654418945,17.184892654418945
1590578552.61956406,51233665,57.6443874,11.8629985,17.520000457763672,17.42402458190918,17.42402458190918
1590578552.65954804,51273649,57.644393199999996,11.8629985,17.75,17.65465545654297,17.65465545654297
1590578552.69953203,51313633,57.644399,11.8629985,17.979999542236328,17.88353157043457,17.88353157043457
1590578552.73951602,51353617,57.6444048,11.862998399999999,18.19999885559082,18.104537963867188,18.104537963867188
1590578552.77950001,51393601,57.644410699999995,11.862998399999999,18.420000076293945,18.320890426635742,18.320890426635742
1590578552.81948400,51433585,57.6444165,11.862998399999999,18.6299991607666,18.532814025878906,18.532814025878906
1590578552.85946798,51473569,57.644422399999996,11.8629983,18.829999923706055,18.738441467285156,18.738441467285156
1590578552.89945197,51513553,57.644428299999994,11.8629983,19.03999900817871,18.9433536529541,18.9433536529541
1590578552.93943596,51553537,57.6444342,11.8629982,19.239999771118164,19.142654418945312,19.142654418945312
1590578552.97942019,51593521,57.6444402,11.8629982,19.43000030517578,19.33899688720703,19.33899688720703
1590578553.01940417,51633505,57.644446099999996,11.8629982,19.6299991607666,19.532365798950195,19.532365798950195
1590578553.05938816,51673489,57.644452099999995,11.862998099999999,19.81999969482422,19.720714569091797,19.720714569091797
1590578553.09937215,51713473,57.644458099999994,11.862998099999999,20.0,19.908597946166992,19.908597946166992
1590578553.14018917,51754290,57.644464299999996,11.862998099999999,20.189998626708984,20.095867156982422,20.095867156982422
1590578553.18017316,51794274,57.644470299999995,11.862998,20.369998931884766,20.276559829711914,20.276559829711914
1590578553.22015715,51834258,57.6444763,11.862998,20.549999237060547,20.45482063293457,20.45482063293457
1590578553.26014113,51874242,57.644482399999994,11.8629979,20.719999313354492,20.628814697265625,20.628814697265625
1590578553.30012512,51914226,57.644488499999994,11.8629979,20.899999618530273,20.802335739135742,20.802335739135742
1590578553.34010911,51954210,57.6444945,11.8629979,21.06999969482422,20.971656799316406,20.971656799316406
1590578553.38009310,51994194,57.6445006,11.862997799999999,21.229999542236328,21.139163970947266,21.139163970947266
1590578553.42007709,52034178,57.644506799999995,11.862997799999999,21.399999618530273,21.30478858947754,21.30478858947754
1590578553.46006107,52074162,57.644512899999995,11.8629977,21.559999465942383,21.466732025146484,21.466732025146484
1590578553.50004506,52114146,57.644518999999995,11.8629977,21.719999313354492,21.62810707092285,21.62810707092285
1590578553.54002905,52154130,57.6445252,11.8629976,21.8799991607666,21.785985946655273,21.785985946655273
1590578553.58001304,52194114,57.6445314,11.8629976,22.03999900817871,21.942180633544922,21.942180633544922
1590578553.61999702,52234098,57.6445376,11.862997499999999,22.189998626708984,22.096593856811523,22.096593856811523
1590578553.65998101,52274082,57.644543799999994,11.862997499999999,22.34000015258789,22.2478084564209,22.2478084564209
1590578553.69996500,52314066,57.644549999999995,11.862997499999999,22.489999771118164,22.399314880371094,22.399314880371094
1590578553.73994899,52354050,57.6445562,11.8629974,22.639999389648438,22.547332763671875,22.547332763671875
1590578553.77993298,52394034,57.6445624,11.8629974,22.78999900817871,22.69369125366211,22.69369125366211
1590578553.81991696,52434018,57.6445687,11.8629973,22.93000030517578,22.838233947753906,22.838233947753906
1590578553.85990095,52474002,57.644574999999996,11.8629973,23.06999969482422,22.979412078857422,22.979412078857422
1590578553.89988518,52513986,57.644581099999996,11.862997199999999,23.209999084472656,23.117473602294922,23.117473602294922
1590578553.93986917,52553970,57.6445874,11.862997199999999,23.350000381469727,23.25563621520996,23.25563621520996
1590578553.97985315,52593954,57.644593699999994,11.8629971,23.489999771118164,23.392559051513672,23.392559051513672
1590578554.01983714,52633938,57.6446,11.862997,23.619998931884766,23.52823829650879,23.52823829650879
1590578554.05982113,52673922,57.6446063,11.862997,23.760000228881836,23.661218643188477,23.661218643188477
1590578554.09980512,52713906,57.644612699999996,11.862996899999999,23.889999389648438,23.79371452331543,23.79371452331543
1590578554.13978910,52753890,57.644619,11.862996899999999,24.01999855041504,23.923437118530273,23.923437118530273
1590578554.17977309,52793874,57.644625399999995,11.8629968,24.149999618530273,24.05219268798828,24.05219268798828
1590578554.21975708,52833858,57.6446318,11.8629967,24.26999855041504,24.179828643798828,24.179828643798828
1590578554.25974107,52873842,57.644638199999996,11.8629967,24.399999618530273,24.304920196533203,24.304920196533203
1590578554.29972506,52913826,57.6446446,11.862996599999999,24.51999855041504,24.429311752319336,24.429311752319336
1590578554.33970904,52953810,57.644650999999996,11.8629965,24.649999618530273,24.55124855041504,24.55124855041504
1590578554.37969303,52993794,57.6446574,11.8629964,24.76999855041504,24.672563552856445,24.672563552856445
1590578554.41967702,53033778,57.6446638,11.8629964,24.889999389648438,24.79308319091797,24.79308319091797
1590578554.45966101,53073762,57.6446702,11.862996299999999,25.010000228881836,24.91133689880371,24.91133689880371
1590578554.49964499,53113746,57.6446767,11.8629962,25.119998931884766,25.028390884399414,25.028390884399414
1590578554.53962898,53153730,57.644683099999995,11.8629961,25.239999771118164,25.143306732177734,25.143306732177734
1590578554.57961297,53193714,57.6446896,11.8629961,25.350000381469727,25.257129669189453,25.257129669189453
1590578554.61959696,53233698,57.644695999999996,11.862995999999999,25.459999084472656,25.369630813598633,25.369630813598633
1590578554.65958118,53273682,57.644702499999994,11.8629959,25.56999969482422,25.479782104492188,25.479782104492188
1590578554.69956517,53313666,57.644709,11.8629959,25.68000030517578,25.589000701904297,25.589000701904297
1590578554.73954916,53353650,57.6447155,11.8629958,25.78999900817871,25.69582176208496,25.69582176208496
1590578554.77953315,53393634,57.644721999999994,11.862995699999999,25.899999618530273,25.80178451538086,25.80178451538086
1590578554.81951714,53433618,57.6447285,11.862995699999999,26.0,25.90679168701172,25.90679168701172
1590578554.85950112,53473602,57.644735,11.8629956,26.099998474121094,26.00969886779785,26.00969886779785
1590578554.89948511,53513586,57.644741599999996,11.8629956,26.209999084472656,26.112459182739258,26.112459182739258
1590578554.93946910,53553570,57.644748099999994,11.8629955,26.309999465942383,26.21294593811035,26.21294593811035
1590578554.97945309,53593554,57.6447546,11.862995399999999,26.40999984741211,26.3126277923584,26.3126277923584
1590578555.01943707,53633538,57.6447612,11.862995399999999,26.510000228881836,26.411401748657227,26.411401748657227
1590578555.05942106,53673522,57.644767699999996,11.8629953,26.599998474121094,26.50806427001953,26.50806427001953
1590578555.09940505,53713506,57.644774299999995,11.8629953,26.69999885559082,26.60439109802246,26.60439109802246
1590578555.13938904,53753490,57.6447808,11.8629952,26.78999900817871,26.698678970336914,26.698678970336914
1590578555.17937303,53793474,57.6447874,11.8629951,26.889999389648438,26.791933059692383,26.791933059692383
1590578555.22019005,53834291,57.6447941,11.8629951,26.979999542236328,26.886215209960938,26.886215209960938
1590578555.26017404,53874275,57.6448007,11.862995,27.06999969482422,26.976303100585938,26.976303100585938
1590578555.30015802,53914259,57.6448073,11.862995,27.15999984741211,27.066017150878906,27.066017150878906
1590578555.34014201,53954243,57.644813899999995,11.8629949,27.25,27.15374755859375,27.15374755859375
1590578555.38012600,53994227,57.644820499999994,11.8629948,27.34000015258789,27.2403621673584,27.2403621673584
1590578555.42010999,54034211,57.6448271,11.8629948,27.420000076293945,27.325782775878906,27.325782775878906
1590578555.46009398,54074195,57.6448337,11.8629947,27.5,27.409244537353516,27.409244537353516
1590578555.50007796,54114179,57.6448403,11.8629947,27.59000015258789,27.49224281311035,27.49224281311035
1590578555.54006195,54154163,57.644846799999996,11.862994599999999,27.670000076293945,27.573163986206055,27.573163986206055
1590578555.58004618,54194147,57.644853399999995,11.8629945,27.75,27.65338897705078,27.65338897705078
1590578555.62003016,54234131,57.644860099999995,11.8629945,27.829999923706055,27.732749938964844,27.732749938964844
1590578555.66001415,54274115,57.644866699999994,11.8629944,27.899999618530273,27.80995750427246,27.80995750427246
1590578555.69999814,54314099,57.6448733,11.862994299999999,27.979999542236328,27.88629722595215,27.88629722595215
1590578555.73998213,54354083,57.6448799,11.862994299999999,28.059999465942383,27.960493087768555,27.960493087768555
1590578555.77996612,54394067,57.6448865,11.8629942,28.1299991607666,28.03413963317871,28.03413963317871
1590578555.81995010,54434051,57.6448931,11.8629941,28.19999885559082,28.107059478759766,28.107059478759766
1590578555.85993409,54474035,57.6448998,11.8629941,28.26999855041504,28.177749633789062,28.177749633789062
1590578555.89991808,54514019,57.644906399999996,11.862993999999999,28.34000015258789,28.245994567871094,28.245994567871094
1590578555.93990207,54554003,57.644912999999995,11.8629939,28.40999984741211,28.311983108520508,28.311983108520508
1590578555.97988605,54593987,57.6449195,11.8629939,28.469999313354492,28.3751220703125,28.3751220703125
1590578556.01987004,54633971,57.6449262,11.8629938,28.529998779296875,28.43853759765625,28.43853759765625
1590578556.05985403,54673955,57.6449328,11.8629938,28.59000015258789,28.49994468688965,28.49994468688965
1590578556.09983802,54713939,57.6449395,11.862993699999999,28.649999618530273,28.559825897216797,28.559825897216797
1590578556.13982201,54753923,57.6449461,11.8629936,28.709999084472656,28.618017196655273,28.618017196655273
1590578556.17980599,54793907,57.6449528,11.8629936,28.76999855041504,28.67571449279785,28.67571449279785
1590578556.21978998,54833891,57.6449594,11.8629935,28.829999923706055,28.732715606689453,28.732715606689453
1590578556.25977397,54873875,57.6449661,11.8629935,28.8799991607666,28.78787612915039,28.78787612915039
1590578556.29975796,54913859,57.6449728,11.862993399999999,28.939998626708984,28.84187889099121,28.84187889099121
1590578556.33974218,54953843,57.6449794,11.862993399999999,28.989999771118164,28.894018173217773,28.894018173217773
1590578556.37972617,54993827,57.6449861,11.8629933,29.03999900817871,28.94497299194336,28.94497299194336
1590578556.41971016,55033811,57.6449928,11.8629933,29.09000015258789,28.994768142700195,28.994768142700195
1590578556.45969415,55073795,57.6449995,11.8629933,29.139999389648438,29.04304313659668,29.04304313659668
1590578556.49967813,55113779,57.6450062,11.8629932,29.189998626708984,29.09014320373535,29.09014320373535
1590578556.53966212,55153763,57.6450129,11.8629932,29.229999542236328,29.13582992553711,29.13582992553711
1590578556.57964611,55193747,57.6450196,11.862993099999999,29.279998779296875,29.180509567260742,29.180509567260742
1590578556.61963010,55233731,57.6450262,11.862993099999999,29.31999969482422,29.224136352539062,29.224136352539062
1590578556.65961409,55273715,57.6450329,11.862993,29.35999870300293,29.266357421875,29.266357421875
1590578556.69959807,55313699,57.6450396,11.862993,29.399999618530273,29.3068904876709,29.3068904876709
1590578556.73958206,55353683,57.6450464,11.8629929,29.439998626708984,29.346149444580078,29.346149444580078
1590578556.77956605,55393667,57.6450531,11.8629929,29.479999542236328,29.385013580322266,29.385013580322266
1590578556.81955004,55433651,57.6450598,11.8629929,29.51999855041504,29.423479080200195,29.423479080200195
1590578556.85953403,55473635,57.6450665,11.862992799999999,29.559999465942383,29.460906982421875,29.460906982421875
1590578556.89951801,55513619,57.6450732,11.862992799999999,29.59000015258789,29.497575759887695,29.497575759887695
1590578556.93950200,55553603,57.6450799,11.8629927,29.6299991607666,29.53322982788086,29.53322982788086
1590578556.97948599,55593587,57.6450866,11.8629927,29.65999984741211,29.568620681762695,29.568620681762695
1590578557.01946998,55633571,57.6450933,11.8629927,29.69999885559082,29.6036434173584,29.6036434173584
1590578557.05945396,55673555,57.6451,11.8629926,29.729999542236328,29.637460708618164,29.637460708618164
1590578557.09943795,55713539,57.6451067,11.8629926,29.760000228881836,29.66986656188965,29.66986656188965
1590578557.13942218,55753523,57.6451134,11.8629926,29.799999237060547,29.701126098632812,29.701126098632812
1590578557.17940617,55793507,57.6451201,11.862992499999999,29.829999923706055,29.731674194335938,29.731674194335938
1590578557.21939015,55833491,57.645126899999994,11.862992499999999,29.85999870300293,29.761430740356445,29.761430740356445
1590578557.25937414,55873475,57.645133599999994,11.862992499999999,29.8799991607666,29.789947509765625,29.789947509765625
1590578557.30019116,55914292,57.6451405,11.8629924,29.90999984741211,29.8182373046875,29.8182373046875
1590578557.34017515,55954276,57.6451472,11.8629924,29.939998626708984,29.84445571899414,29.84445571899414
1590578557.38015914,55994260,57.6451539,11.8629924,29.959999084472656,29.869796752929688,29.869796752929688
1590578557.42014313,56034244,57.6451606,11.8629923,29.989999771118164,29.89421272277832,29.89421272277832
1590578557.46012712,56074228,57.6451674,11.8629923,30.010000228881836,29.91728973388672,29.91728973388672
1590578557.50011110,56114212,57.6451741,11.8629923,30.029998779296875,29.938764572143555,29.938764572143555
1590578557.54009509,56154196,57.6451808,11.8629923,30.049999237060547,29.959102630615234,29.959102630615234
1590578557.58007908,56194180,57.6451875,11.8629923,30.06999969482422,29.978553771972656,29.978553771972656
1590578557.62006307,56234164,57.6451942,11.862992199999999,30.09000015258789,29.997129440307617,29.997129440307617
1590578557.66004705,56274148,57.645201,11.862992199999999,30.10999870300293,30.01466941833496,30.01466941833496
1590578557.70003104,56314132,57.6452077,11.862992199999999,30.119998931884766,30.029802322387695,30.029802322387695
1590578557.74001503,56354116,57.6452144,11.862992199999999,30.139999389648438,30.043758392333984,30.043758392333984
1590578557.77999902,56394100,57.6452211,11.862992199999999,30.149999618530273,30.057104110717773,30.057104110717773
1590578557.81998301,56434084,57.6452278,11.862992199999999,30.15999984741211,30.06976318359375,30.06976318359375
1590578557.85996699,56474068,57.645234599999995,11.862992199999999,30.17999839782715,30.081192016601562,30.081192016601562
1590578557.89995098,56514052,57.645241299999995,11.862992199999999,30.189998626708984,30.090728759765625,30.090728759765625
1590578557.93993497,56554036,57.645247999999995,11.862992199999999,30.189998626708984,30.09910774230957,30.09910774230957
1590578557.97991896,56594020,57.645254699999995,11.862992199999999,30.19999885559082,30.106672286987305,30.106672286987305
1590578558.01990318,56634004,57.645261399999995,11.862992199999999,30.209999084472656,30.113452911376953,30.113452911376953
1590578558.05988717,56673988,57.645267999999994,11.862992199999999,30.209999084472656,30.119077682495117,30.119077682495117
1590578558.09987116,56713972,57.645274699999995,11.862992199999999,30.219999313354492,30.1226749420166,30.1226749420166
1590578558.13985515,56753956,57.645281499999996,11.862992199999999,30.219999313354492,30.12551498413086,30.12551498413086
1590578558.17983913,56793940,57.645288199999996,11.862992199999999,30.219999313354492,30.128143310546875,30.128143310546875
1590578558.21982312,56833924,57.645294899999996,11.862992199999999,30.229999542236328,30.130475997924805,30.130475997924805
1590578558.25980711,56873908,57.645301599999996,11.862992199999999,30.229999542236328,30.131900787353516,30.131900787353516
1590578558.29979110,56913892,57.645308299999996,11.862992199999999,30.229999542236328,30.131872177124023,30.131872177124023
1590578558.33977509,56953876,57.6453151,11.862992199999999,30.229999542236328,30.130924224853516,30.130924224853516
1590578558.37975907,56993860,57.6453218,11.862992199999999,30.219999313354492,30.129535675048828,30.129535675048828
1590578558.41974306,57033844,57.6453285,11.862992199999999,30.219999313354492,30.127628326416016,30.127628326416016
1590578558.45972705,57073828,57.6453353,11.862992199999999,30.219999313354492,30.12466049194336,30.12466049194336
1590578558.49971104,57113812,57.645342,11.862992199999999,30.209999084472656,30.119863510131836,30.119863510131836
1590578558.53969502,57153796,57.6453487,11.862992199999999,30.209999084472656,30.113994598388672,30.113994598388672
1590578558.57967901,57193780,57.6453555,11.862992199999999,30.19999885559082,30.107149124145508,30.107149124145508
1590578558.61966300,57233764,57.645362199999994,11.862992199999999,30.189998626708984,30.099380493164062,30.099380493164062
1590578558.65964699,57273748,57.645368899999994,11.862992199999999,30.189998626708984,30.09069061279297,30.09069061279297
1590578558.69963098,57313732,57.645375699999995,11.862992199999999,30.17999839782715,30.08013343811035,30.08013343811035
1590578558.73961496,57353716,57.645382399999995,11.862992199999999,30.15999984741211,30.069093704223633,30.069093704223633
1590578558.77959895,57393700,57.645389099999996,11.862992199999999,30.149999618530273,30.057432174682617,30.057432174682617
1590578558.81958318,57433684,57.6453959,11.862992199999999,30.139999389648438,30.04517364501953,30.04517364501953
1590578558.85956717,57473668,57.6454026,11.862992199999999,30.1299991607666,30.03258514404297,30.03258514404297
1590578558.89955115,57513652,57.6454093,11.862992199999999,30.10999870300293,30.01811408996582,30.01811408996582
1590578558.93953514,57553636,57.6454161,11.862992199999999,30.099998474121094,30.003402709960938,30.003402709960938
1590578558.97951913,57593620,57.6454228,11.862992199999999,30.079999923706055,29.988075256347656,29.988075256347656
1590578559.01950312,57633604,57.6454295,11.862992199999999,30.06999969482422,29.972185134887695,29.972185134887695
1590578559.05948710,57673588,57.6454363,11.862992199999999,30.049999237060547,29.956071853637695,29.956071853637695
1590578559.09947109,57713572,57.645443,11.862992199999999,30.029998779296875,29.937898635864258,29.937898635864258
1590578559.13945508,57753556,57.6454497,11.862992199999999,30.010000228881836,29.91974639892578,29.91974639892578
1590578559.17943907,57793540,57.6454564,11.862992199999999,30.0,29.901269912719727,29.901269912719727
1590578559.21942306,57833524,57.645463199999995,11.862992199999999,29.979999542236328,29.882545471191406,29.882545471191406
1590578559.25940704,57873508,57.645469899999995,11.862992199999999,29.959999084472656,29.86399269104004,29.86399269104004
1590578559.29939103,57913492,57.645476599999995,11.862992199999999,29.939998626708984,29.844032287597656,29.844032287597656
1590578559.33937502,57953476,57.645483299999995,11.862992199999999,29.920000076293945,29.824357986450195,29.824357986450195
1590578559.38019204,57994293,57.6454902,11.862992199999999,29.899999618530273,29.804338455200195,29.804338455200195
1590578559.42017603,58034277,57.6454969,11.862992199999999,29.8799991607666,29.784727096557617,29.784727096557617
1590578559.46016002,58074261,57.6455036,11.862992199999999,29.85999870300293,29.7651424407959,29.7651424407959
1590578559.50014400,58114245,57.6455103,11.862992199999999,29.84000015258789,29.743938446044922,29.743938446044922
1590578559.54012799,58154229,57.6455171,11.862992199999999,29.81999969482422,29.72270393371582,29.72270393371582
1590578559.58011198,58194213,57.6455238,11.862992199999999,29.799999237060547,29.701507568359375,29.701507568359375
1590578559.62009597,58234197,57.6455305,11.8629923,29.779998779296875,29.680179595947266,29.680179595947266
1590578559.66007996,58274181,57.6455372,11.8629923,29.75,29.65840721130371,29.65840721130371
1590578559.70006418,58314165,57.6455438,11.8629923,29.729999542236328,29.634170532226562,29.634170532226562
1590578559.74004817,58354149,57.6455505,11.8629923,29.69999885559082,29.60940933227539,29.60940933227539
1590578559.78003216,58394133,57.6455572,11.8629923,29.67999839782715,29.584228515625,29.584228515625
1590578559.82001615,58434117,57.6455639,11.8629923,29.649999618530273,29.55840301513672,29.55840301513672
1590578559.86000013,58474101,57.6455706,11.8629923,29.6299991607666,29.531597137451172,29.531597137451172
1590578559.89998412,58514085,57.6455773,11.8629923,29.599998474121094,29.501928329467773,29.501928329467773
1590578559.93996811,58554069,57.645584,11.8629923,29.56999969482422,29.471664428710938,29.471664428710938
1590578559.97995210,58594053,57.6455907,11.8629923,29.53999900817871,29.440702438354492,29.440702438354492
1590578560.01993608,58634037,57.6455974,11.8629923,29.5,29.409168243408203,29.409168243408203
1590578560.05992007,58674021,57.6456041,11.8629924,29.469999313354492,29.37725067138672,29.37725067138672
1590578560.09990406,58714005,57.6456107,11.8629924,29.439998626708984,29.343759536743164,29.343759536743164
1590578560.13988805,58753989,57.6456173,11.8629924,29.40999984741211,29.31085777282715,29.31085777282715
1590578560.17987204,58793973,57.645624,11.8629924,29.369998931884766,29.277095794677734,29.277095794677734
1590578560.21985602,58833957,57.6456307,11.8629924,29.34000015258789,29.243141174316406,29.243141174316406
1590578560.25984001,58873941,57.6456373,11.8629924,29.299999237060547,29.208776473999023,29.208776473999023
1590578560.29982400,58913925,57.645644,11.8629924,29.26999855041504,29.173660278320312,29.173660278320312
1590578560.33980799,58953909,57.6456507,11.8629924,29.229999542236328,29.1383056640625,29.1383056640625
1590578560.37979198,58993893,57.6456574,11.8629924,29.19999885559082,29.102617263793945,29.102617263793945
1590578560.41977596,59033877,57.6456641,11.862992499999999,29.15999984741211,29.06661605834961,29.06661605834961
1590578560.45975995,59073861,57.6456707,11.862992499999999,29.1299991607666,29.030349731445312,29.030349731445312
1590578560.49974418,59113845,57.6456774,11.862992499999999,29.09000015258789,28.991838455200195,28.991838455200195
1590578560.53972816,59153829,57.6456841,11.862992499999999,29.049999237060547,28.95332145690918,28.95332145690918
1590578560.57971215,59193813,57.6456908,11.862992499999999,29.010000228881836,28.91495704650879,28.91495704650879
1590578560.61969614,59233797,57.645697399999996,11.862992499999999,28.969999313354492,28.87664222717285,28.87664222717285
1590578560.65968013,59273781,57.645704099999996,11.862992499999999,28.93000030517578,28.83807945251465,28.83807945251465
1590578560.69966412,59313765,57.645710799999996,11.8629926,28.889999389648438,28.797622680664062,28.797622680664062
1590578560.73964810,59353749,57.645717399999995,11.8629926,28.849998474121094,28.756935119628906,28.756935119628906
1590578560.77963209,59393733,57.645724099999995,11.8629926,28.809999465942383,28.715667724609375,28.715667724609375
1590578560.81961608,59433717,57.645730799999995,11.8629926,28.76999855041504,28.673843383789062,28.673843383789062
1590578560.85960007,59473701,57.645737399999994,11.8629926,28.729999542236328,28.63181495666504,28.63181495666504
1590578560.89958405,59513685,57.645744099999995,11.8629926,28.68000030517578,28.58832359313965,28.58832359313965
1590578560.93956804,59553669,57.6457507,11.8629926,28.639999389648438,28.54483413696289,28.54483413696289
1590578560.97955203,59593653,57.6457574,11.8629927,28.599998474121094,28.500656127929688,28.500656127929688
1590578561.01953602,59633637,57.645764099999994,11.8629927,28.549999237060547,28.455947875976562,28.455947875976562
1590578561.05952001,59673621,57.6457707,11.8629927,28.510000228881836,28.411434173583984,28.411434173583984
1590578561.09950399,59713605,57.6457774,11.8629927,28.459999084472656,28.3648738861084,28.3648738861084
1590578561.13948798,59753589,57.645784,11.8629927,28.40999984741211,28.318540573120117,28.318540573120117
1590578561.17947197,59793573,57.6457907,11.862992799999999,28.369998931884766,28.271728515625,28.271728515625
1590578561.21945596,59833557,57.6457973,11.862992799999999,28.31999969482422,28.224531173706055,28.224531173706055
1590578561.25944018,59873541,57.6458039,11.862992799999999,28.26999855041504,28.17761993408203,28.17761993408203
1590578561.29942417,59913525,57.6458106,11.862992799999999,28.219999313354492,28.12929916381836,28.12929916381836
1590578561.33940816,59953509,57.645817199999996,11.8629929,28.18000030517578,28.081357955932617,28.081357955932617
1590578561.37939215,59993493,57.645823899999996,11.8629929,28.1299991607666,28.033092498779297,28.033092498779297
1590578561.41937613,60033477,57.645830499999995,11.8629929,28.079999923706055,27.984539031982422,27.984539031982422
1590578561.46019316,60074294,57.6458373,11.8629929,28.029998779296875,27.935253143310547,27.935253143310547
1590578561.50017715,60114278,57.645843899999996,11.862993,27.979999542236328,27.88636589050293,27.88636589050293
1590578561.54016113,60154262,57.645850599999996,11.862993,27.93000030517578,27.837982177734375,27.837982177734375
1590578561.58014512,60194246,57.645857199999995,11.862993,27.889999389648438,27.79005241394043,27.79005241394043
1590578561.62012911,60234230,57.6458638,11.862993,27.84000015258789,27.74248695373535,27.74248695373535
1590578561.66011310,60274214,57.6458704,11.862993099999999,27.78999900817871,27.695310592651367,27.695310592651367
1590578561.70009708,60314198,57.645877,11.862993099999999,27.739999771118164,27.646413803100586,27.646413803100586
1590578561.74008107,60354182,57.6458837,11.862993099999999,27.689998626708984,27.598060607910156,27.598060607910156
1590578561.78006506,60394166,57.6458903,11.8629932,27.639999389648438,27.54998207092285,27.54998207092285
1590578561.82004905,60434150,57.6458969,11.8629932,27.599998474121094,27.50222396850586,27.50222396850586
1590578561.86003304,60474134,57.645903399999995,11.8629932,27.549999237060547,27.45502471923828,27.45502471923828
1590578561.90001702,60514118,57.64591,11.8629933,27.5,27.407670974731445,27.407670974731445
1590578561.94000101,60554102,57.6459166,11.8629933,27.459999084472656,27.36073875427246,27.36073875427246
1590578561.97998500,60594086,57.6459232,11.8629933,27.40999984741211,27.314151763916016,27.314151763916016
1590578562.01996899,60634070,57.6459298,11.862993399999999,27.35999870300293,27.267833709716797,27.267833709716797
1590578562.05995297,60674054,57.645936299999995,11.862993399999999,27.31999969482422,27.2216854095459,27.2216854095459
1590578562.09993696,60714038,57.645942899999994,11.862993399999999,27.26999855041504,27.174102783203125,27.174102783203125
1590578562.13992095,60754022,57.6459494,11.862993399999999,27.219999313354492,27.126787185668945,27.126787185668945
1590578562.17990518,60794006,57.645956,11.8629935,27.170000076293945,27.07935333251953,27.07935333251953
1590578562.21988916,60833990,57.645962399999995,11.8629935,27.1299991607666,27.032926559448242,27.032926559448242
1590578562.25987315,60873974,57.6459689,11.8629935,27.079999923706055,26.985485076904297,26.985485076904297
1590578562.29985714,60913958,57.6459754,11.8629936,27.029998779296875,26.936574935913086,26.936574935913086
1590578562.33984113,60953942,57.645982,11.8629936,26.979999542236328,26.887798309326172,26.887798309326172
1590578562.37982512,60993926,57.645988499999994,11.8629936,26.93000030517578,26.83909034729004,26.83909034729004
1590578562.41980910,61033910,57.645995,11.862993699999999,26.889999389648438,26.790433883666992,26.790433883666992
1590578562.45979309,61073894,57.6460015,11.862993699999999,26.84000015258789,26.74181365966797,26.74181365966797
1590578562.49977708,61113878,57.646008099999996,11.862993699999999,26.78999900817871,26.69243049621582,26.69243049621582
1590578562.53976107,61153862,57.6460146,11.8629938,26.739999771118164,26.64301109313965,26.64301109313965
1590578562.57974505,61193846,57.6460211,11.8629938,26.689998626708984,26.592586517333984,26.592586517333984
1590578562.61972904,61233830,57.6460276,11.8629938,26.639999389648438,26.541271209716797,26.541271209716797
1590578562.65971303,61273814,57.646034099999994,11.8629939,26.579999923706055,26.489931106567383,26.489931106567383
1590578562.69969702,61313798,57.6460406,11.8629939,26.529998779296875,26.43702507019043,26.43702507019043
1590578562.73968101,61353782,57.6460471,11.8629939,26.479999542236328,26.384096145629883,26.384096145629883
1590578562.77966499,61393766,57.646053599999995,11.8629939,26.43000030517578,26.330135345458984,26.330135345458984
1590578562.81964898,61433750,57.64606,11.862993999999999,26.369998931884766,26.275157928466797,26.275157928466797
1590578562.85963297,61473734,57.646066499999996,11.862993999999999,26.309999465942383,26.219970703125,26.219970703125
1590578562.89961696,61513718,57.646072999999994,11.862993999999999,26.260000228881836,26.163576126098633,26.163576126098633
1590578562.93960118,61553702,57.6460795,11.8629941,26.19999885559082,26.106956481933594,26.106956481933594
1590578562.97958517,61593686,57.646086,11.8629941,26.139999389648438,26.04928207397461,26.04928207397461
1590578563.01956916,61633670,57.6460924,11.8629941,26.09000015258789,25.990694046020508,25.990694046020508
1590578563.05955315,61673654,57.6460989,11.8629941,26.029998779296875,25.932035446166992,25.932035446166992
1590578563.09953713,61713638,57.646105399999996,11.8629942,25.969999313354492,25.8714542388916,25.8714542388916
1590578563.13952112,61753622,57.6461118,11.8629942,25.90999984741211,25.810989379882812,25.810989379882812
1590578563.17950511,61793606,57.6461183,11.8629942,25.849998474121094,25.75038719177246,25.75038719177246
1590578563.21948910,61833590,57.646124799999996,11.8629942,25.779998779296875,25.68973159790039,25.68973159790039
1590578563.25947309,61873574,57.6461312,11.8629942,25.719999313354492,25.629283905029297,25.629283905029297
1590578563.29945707,61913558,57.6461377,11.862994299999999,25.65999984741211,25.567537307739258,25.567537307739258
1590578563.33944106,61953542,57.6461441,11.862994299999999,25.599998474121094,25.50613021850586,25.50613021850586
1590578563.37942505,61993526,57.6461506,11.862994299999999,25.53999900817871,25.444190979003906,25.444190979003906
1590578563.41940904,62033510,57.646156999999995,11.862994299999999,25.479999542236328,25.3818302154541,25.3818302154541
1590578563.45939302,62073494,57.6461635,11.862994299999999,25.40999984741211,25.319843292236328,25.319843292236328
1590578563.49937701,62113478,57.6461699,11.8629944,25.350000381469727,25.256006240844727,25.256006240844727
1590578563.54019403,62154295,57.646176499999996,11.8629944,25.28999900817871,25.190977096557617,25.190977096557617
1590578563.58017802,62194279,57.646183,11.8629944,25.219999313354492,25.127262115478516,25.127262115478516
1590578563.62016201,62234263,57.6461894,11.8629944,25.15999984741211,25.06334114074707,25.06334114074707
1590578563.66014600,62274247,57.646195799999994,11.8629944,25.09000015258789,24.999492645263672,24.999492645263672
1590578563.70012999,62314231,57.6462023,11.8629944,25.029998779296875,24.934200286865234,24.934200286865234
1590578563.74011397,62354215,57.646208699999995,11.8629945,24.959999084472656,24.869247436523438,24.869247436523438
1590578563.78009796,62394199,57.6462151,11.8629945,24.899999618530273,24.803674697875977,24.803674697875977
1590578563.82008195,62434183,57.646221499999996,11.8629945,24.829999923706055,24.73768424987793,24.73768424987793
1590578563.86006618,62474167,57.646228,11.8629945,24.76999855041504,24.67222023010254,24.67222023010254
1590578563.90005016,62514151,57.6462344,11.8629945,24.69999885559082,24.606760025024414,24.606760025024414
1590578563.94003415,62554135,57.646240799999994,11.8629945,24.639999389648438,24.54186248779297,24.54186248779297
1590578563.98001814,62594119,57.6462472,11.8629945,24.56999969482422,24.476497650146484,24.476497650146484
1590578564.02000213,62634103,57.646253599999994,11.862994599999999,24.510000228881836,24.41077995300293,24.41077995300293
1590578564.05998611,62674087,57.64626,11.862994599999999,24.439998626708984,24.345630645751953,24.345630645751953
1590578564.09997010,62714071,57.646266399999995,11.862994599999999,24.369998931884766,24.27950668334961,24.27950668334961
1590578564.13995409,62754055,57.6462728,11.862994599999999,24.309999465942383,24.213855743408203,24.213855743408203
1590578564.17993808,62794039,57.646279199999995,11.862994599999999,24.239999771118164,24.148115158081055,24.148115158081055
