timestamp,TimeUS,Lat,Lng,Alt,RelHomeAlt,RelOriginAlt
1590579968.14002419,39354252,57.6432,11.863,-0.03999999910593033,-0.1423235386610031,-0.1423235386610031
1590579968.18000817,39394236,57.6432,11.863,-0.03999999910593033,-0.14267882704734802,-0.14267882704734802
1590579968.21999216,39434220,57.6432,11.863,-0.03999999910593033,-0.14261852204799652,-0.14261852204799652
1590579968.25997615,39474204,57.6432,11.863,-0.03999999910593033,-0.14259909093379974,-0.14259909093379974
1590579968.29996014,39514188,57.6432,11.863,-0.03999999910593033,-0.14337372779846191,-0.14337372779846191
1590579968.33994412,39554172,57.6432,11.863,-0.03999999910593033,-0.14407820999622345,-0.14407820999622345
1590579968.37992811,39594156,57.6432,11.863,-0.03999999910593033,-0.14503753185272217,-0.14503753185272217
1590579968.41991210,39634140,57.6432,11.863,-0.03999999910593033,-0.14620177447795868,-0.14620177447795868
1590579968.45989609,39674124,57.6432,11.863,-0.03999999910593033,-0.14725208282470703,-0.14725208282470703
1590579968.49988008,39714108,57.6432,11.863,-0.03999999910593033,-0.14707081019878387,-0.14707081019878387
1590579968.53986406,39754092,57.6432,11.863,-0.03999999910593033,-0.14694170653820038,-0.14694170653820038
1590579968.57984805,39794076,57.6432,11.863,-0.03999999910593033,-0.14707982540130615,-0.14707982540130615
1590579968.61983204,39834060,57.6432,11.863,-0.03999999910593033,-0.14743651449680328,-0.14743651449680328
1590579968.65981603,39874044,57.643200099999994,11.863,-0.03999999910593033,-0.14777562022209167,-0.14777562022209167
1590579968.69980001,39914028,57.643200099999994,11.863,-0.03999999910593033,-0.14736983180046082,-0.14736983180046082
1590579968.73978400,39954012,57.643200199999995,11.863,-0.03999999910593033,-0.1470239907503128,-0.1470239907503128
1590579968.77976799,39993996,57.6432004,11.863,-0.03999999910593033,-0.14731673896312714,-0.14731673896312714
1590579968.81975198,40033980,57.6432006,11.863,-0.03999999910593033,-0.14813990890979767,-0.14813990890979767
1590579968.85973620,40073964,57.643200799999995,11.863,-0.03999999910593033,-0.1488397717475891,-0.1488397717475891
1590579968.89972019,40113948,57.6432011,11.863,-0.03999999910593033,-0.14892125129699707,-0.14892125129699707
1590579968.93970418,40153932,57.643201499999996,11.863,-0.03999999910593033,-0.14894728362560272,-0.14894728362560272
1590579968.97968817,40193916,57.643201899999994,11.863,-0.03999999910593033,-0.1487332135438919,-0.1487332135438919
1590579969.01967216,40233900,57.6432024,11.863,-0.03999999910593033,-0.14830684661865234,-0.14830684661865234
1590579969.05965614,40273884,57.643203,11.863,-0.03999999910593033,-0.14785046875476837,-0.14785046875476837
1590579969.09964013,40313868,57.6432037,11.863,-0.03999999910593033,-0.14613249897956848,-0.14613249897956848
1590579969.13962412,40353852,57.643204499999996,11.863,-0.03999999910593033,-0.14449988305568695,-0.14449988305568695
1590579969.17960811,40393836,57.6432054,11.863000099999999,-0.03999999910593033,-0.14359056949615479,-0.14359056949615479
1590579969.21959209,40433820,57.6432064,11.863000099999999,-0.03999999910593033,-0.1432519108057022,-0.1432519108057022
1590579969.25957608,40473804,57.643207499999995,11.863000099999999,-0.03999999910593033,-0.14276546239852905,-0.14276546239852905
1590579969.29956007,40513788,57.643208699999995,11.863000099999999,-0.03999999910593033,-0.14104145765304565,-0.14104145765304565
1590579969.33954406,40553772,57.6432101,11.863000099999999,-0.029999999329447746,-0.13928046822547913,-0.13928046822547913
1590579969.37952805,40593756,57.6432116,11.863000099999999,-0.029999999329447746,-0.13750454783439636,-0.13750454783439636
1590579969.41951203,40633740,57.6432132,11.8630002,-0.029999999329447746,-0.13568349182605743,-0.13568349182605743
1590579969.45949602,40673724,57.643215,11.8630002,-0.029999999329447746,-0.13375508785247803,-0.13375508785247803
1590579969.49948001,40713708,57.6432169,11.8630002,-0.029999999329447746,-0.13212241232395172,-0.13212241232395172
1590579969.53946400,40753692,57.6432189,11.8630002,-0.029999999329447746,-0.13025915622711182,-0.13025915622711182
1590579969.57944798,40793676,57.6432211,11.8630002,-0.019999999552965164,-0.12859925627708435,-0.12859925627708435
1590579969.61943197,40833660,57.6432235,11.8630003,-0.019999999552965164,-0.12705765664577484,-0.12705765664577484
1590579969.65941620,40873644,57.643226,11.8630003,-0.019999999552965164,-0.12517611682415009,-0.12517611682415009
1590579969.69940019,40913628,57.6432286,11.8630003,-0.019999999552965164,-0.1231883093714714,-0.1231883093714714
1590579969.73938417,40953612,57.6432314,11.8630003,-0.019999999552965164,-0.1207921952009201,-0.1207921952009201
1590579969.77936816,40993596,57.643234299999996,11.8630003,-0.009999999776482582,-0.11774444580078125,-0.11774444580078125
1590579969.81935215,41033580,57.6432374,11.8630003,-0.009999999776482582,-0.1141112670302391,-0.1141112670302391
1590579969.85933614,41073564,57.6432406,11.8630003,-0.009999999776482582,-0.11018016189336777,-0.11018016189336777
1590579969.89932013,41113548,57.643243899999995,11.863000399999999,0.0,-0.10539501905441284,-0.10539501905441284
1590579969.93930411,41153532,57.6432473,11.863000399999999,0.0,-0.10031759738922119,-0.10031759738922119
1590579969.97928810,41193516,57.6432509,11.863000399999999,0.0,-0.09489544481039047,-0.09489544481039047
1590579970.01927209,41233500,57.6432546,11.863000399999999,0.009999999776482582,-0.08914913982152939,-0.08914913982152939
1590579970.05925608,41273484,57.643258499999995,11.863000399999999,0.009999999776482582,-0.08311517536640167,-0.08311517536640167
1590579970.10007310,41314301,57.6432625,11.863000399999999,0.019999999552965164,-0.07785409688949585,-0.07785409688949585
1590579970.14005709,41354285,57.6432666,11.863000399999999,0.019999999552965164,-0.07140793651342392,-0.07140793651342392
1590579970.18004107,41394269,57.643270799999996,11.863000399999999,0.029999999329447746,-0.06328016519546509,-0.06328016519546509
1590579970.22002506,41434253,57.6432751,11.863000399999999,0.03999999910593033,-0.05354011431336403,-0.05354011431336403
1590579970.26000905,41474237,57.6432795,11.863000399999999,0.04999999701976776,-0.0425235852599144,-0.0425235852599144
1590579970.29999304,41514221,57.643284099999995,11.863000399999999,0.05999999865889549,-0.030793603509664536,-0.030793603509664536
1590579970.33997703,41554205,57.6432887,11.863000399999999,0.07999999821186066,-0.01844937726855278,-0.01844937726855278
1590579970.37996101,41594189,57.6432934,11.863000399999999,0.08999999612569809,-0.005677403882145882,-0.005677403882145882
1590579970.41994500,41634173,57.6432982,11.863000399999999,0.09999999403953552,0.007312407251447439,0.007312407251447439
1590579970.45992899,41674157,57.6433032,11.863000399999999,0.11999999731779099,0.020149920135736465,0.020149920135736465
1590579970.49991298,41714141,57.6433082,11.863000399999999,0.12999999523162842,0.0304227527230978,0.0304227527230978
1590579970.53989720,41754125,57.643313299999996,11.863000399999999,0.14000000059604645,0.040656331926584244,0.040656331926584244
1590579970.57988119,41794109,57.6433185,11.863000399999999,0.14999999105930328,0.05078268051147461,0.05078268051147461
1590579970.61986518,41834093,57.6433238,11.863000399999999,0.1599999964237213,0.060739174485206604,0.060739174485206604
1590579970.65984917,41874077,57.6433292,11.863000399999999,0.17000000178813934,0.07076661288738251,0.07076661288738251
1590579970.69983315,41914061,57.643334599999996,11.8630003,0.17000000178813934,0.07889854162931442,0.07889854162931442
1590579970.73981714,41954045,57.643340099999996,11.8630003,0.17999999225139618,0.08728482574224472,0.08728482574224472
1590579970.77980113,41994029,57.6433457,11.8630002,0.1899999976158142,0.09614569693803787,0.09614569693803787
1590579970.81978512,42034013,57.6433514,11.8630002,0.19999998807907104,0.10536660999059677,0.10536660999059677
1590579970.85976911,42073997,57.643356999999995,11.8630002,0.20999999344348907,0.11442871391773224,0.11442871391773224
1590579970.89975309,42113981,57.6433628,11.8630002,0.2199999988079071,0.12334629893302917,0.12334629893302917
1590579970.93973708,42153965,57.643368599999995,11.8630002,0.22999998927116394,0.13231098651885986,0.13231098651885986
1590579970.97972107,42193949,57.6433745,11.8630002,0.23999999463558197,0.14076976478099823,0.14076976478099823
1590579971.01970506,42233933,57.6433804,11.8630002,0.23999999463558197,0.1487097591161728,0.1487097591161728
1590579971.05968904,42273917,57.6433864,11.8630002,0.25,0.15667736530303955,0.15667736530303955
1590579971.09967303,42313901,57.643392399999996,11.8630002,0.25999999046325684,0.16313382983207703,0.16313382983207703
1590579971.13965702,42353885,57.643398399999995,11.8630002,0.25999999046325684,0.16960792243480682,0.16960792243480682
1590579971.17964101,42393869,57.643404399999994,11.8630002,0.26999998092651367,0.1755465269088745,0.1755465269088745
1590579971.21962500,42433853,57.6434104,11.8630002,0.2800000011920929,0.18108783662319183,0.18108783662319183
1590579971.25960898,42473837,57.6434164,11.863000099999999,0.2800000011920929,0.18682201206684113,0.18682201206684113
1590579971.29959297,42513821,57.6434225,11.863000099999999,0.2800000011920929,0.18983761966228485,0.18983761966228485
1590579971.33957720,42553805,57.6434285,11.863000099999999,0.28999999165534973,0.1932065188884735,0.1932065188884735
1590579971.37956119,42593789,57.6434346,11.863,0.28999999165534973,0.1972029060125351,0.1972029060125351
1590579971.41954517,42633773,57.6434407,11.863,0.29999998211860657,0.20171093940734863,0.20171093940734863
1590579971.45952916,42673757,57.6434467,11.863,0.29999998211860657,0.20644721388816833,0.20644721388816833
1590579971.49951315,42713741,57.6434529,11.863,0.3100000023841858,0.21039772033691406,0.21039772033691406
1590579971.53949714,42753725,57.643459,11.863,0.3100000023841858,0.2144842892885208,0.2144842892885208
1590579971.57948112,42793709,57.6434651,11.863,0.3100000023841858,0.2185392528772354,0.2185392528772354
1590579971.61946511,42833693,57.6434712,11.863,0.3199999928474426,0.2225617617368698,0.2225617617368698
1590579971.65944910,42873677,57.6434773,11.863,0.3199999928474426,0.22682294249534607,0.22682294249534607
1590579971.69943309,42913661,57.643483499999995,11.863,0.3199999928474426,0.2298935055732727,0.2298935055732727
1590579971.73941708,42953645,57.643489599999995,11.863,0.32999998331069946,0.2331496626138687,0.2331496626138687
1590579971.77940106,42993629,57.6434958,11.863,0.32999998331069946,0.2370353490114212,0.2370353490114212
1590579971.81938505,43033613,57.6435019,11.863,0.3400000035762787,0.24142514169216156,0.24142514169216156
1590579971.85936904,43073597,57.6435081,11.863,0.3400000035762787,0.24591399729251862,0.24591399729251862
1590579971.89935303,43113581,57.6435142,11.863,0.3400000035762787,0.24908144772052765,0.24908144772052765
1590579971.93933702,43153565,57.6435204,11.863,0.3499999940395355,0.25237566232681274,0.25237566232681274
1590579971.97932100,43193549,57.643526599999994,11.863000099999999,0.3499999940395355,0.25574639439582825,0.25574639439582825
1590579972.01930499,43233533,57.643532799999996,11.863000099999999,0.3499999940395355,0.2591462731361389,0.2591462731361389
1590579972.05928898,43273517,57.643538899999996,11.863000099999999,0.35999998450279236,0.2627328932285309,0.2627328932285309
1590579972.09927297,43313501,57.6435451,11.863000099999999,0.35999998450279236,0.26500046253204346,0.26500046253204346
1590579972.13925719,43353485,57.6435513,11.863000099999999,0.35999998450279236,0.26752138137817383,0.26752138137817383
1590579972.18007398,43394302,57.643557699999995,11.863000099999999,0.3700000047683716,0.2706952393054962,0.2706952393054962
1590579972.22005820,43434286,57.6435639,11.863000099999999,0.3700000047683716,0.2741745710372925,0.2741745710372925
1590579972.26004219,43474270,57.6435701,11.863000099999999,0.3700000047683716,0.27788546681404114,0.27788546681404114
1590579972.30002618,43514254,57.6435763,11.8630002,0.3799999952316284,0.28014349937438965,0.28014349937438965
1590579972.34001017,43554238,57.6435825,11.8630002,0.3799999952316284,0.28272944688796997,0.28272944688796997
1590579972.37999415,43594222,57.643588699999995,11.8630002,0.3799999952316284,0.2857140600681305,0.2857140600681305
1590579972.41997814,43634206,57.6435949,11.8630002,0.3799999952316284,0.288990318775177,0.288990318775177
1590579972.45996213,43674190,57.6436011,11.8630002,0.38999998569488525,0.29245725274086,0.29245725274086
1590579972.49994612,43714174,57.6436073,11.8630003,0.38999998569488525,0.2953917682170868,0.2953917682170868
1590579972.53993011,43754158,57.643613599999995,11.8630003,0.38999998569488525,0.298582524061203,0.298582524061203
1590579972.57991409,43794142,57.643619799999996,11.8630003,0.3999999761581421,0.3015862703323364,0.3015862703323364
1590579972.61989808,43834126,57.643626,11.8630003,0.3999999761581421,0.30446216464042664,0.30446216464042664
1590579972.65988207,43874110,57.6436322,11.8630003,0.3999999761581421,0.30766040086746216,0.30766040086746216
1590579972.69986606,43914094,57.6436384,11.863000399999999,0.4099999964237213,0.3112916648387909,0.3112916648387909
1590579972.73985004,43954078,57.643644599999995,11.863000399999999,0.4099999964237213,0.31511980295181274,0.31511980295181274
1590579972.77983403,43994062,57.6436509,11.863000399999999,0.4099999964237213,0.3190305829048157,0.3190305829048157
1590579972.81981802,44034046,57.6436571,11.863000399999999,0.41999998688697815,0.3230096995830536,0.3230096995830536
1590579972.85980201,44074030,57.6436633,11.863000399999999,0.41999998688697815,0.3271627426147461,0.3271627426147461
1590579972.89978600,44114014,57.643669499999994,11.863000399999999,0.429999977350235,0.3323044180870056,0.3323044180870056
1590579972.93976998,44153998,57.643675599999995,11.8630005,0.429999977350235,0.3372937738895416,0.3372937738895416
1590579972.97975397,44193982,57.643681799999996,11.8630005,0.4399999976158142,0.3423442840576172,0.3423442840576172
1590579973.01973820,44233966,57.643688,11.8630005,0.4399999976158142,0.3472796082496643,0.3472796082496643
1590579973.05972219,44273950,57.6436942,11.8630005,0.44999998807907104,0.3522240221500397,0.3522240221500397
1590579973.09970617,44313934,57.643700499999994,11.8630006,0.44999998807907104,0.35759997367858887,0.35759997367858887
1590579973.13969016,44353918,57.643706699999996,11.8630006,0.4599999785423279,0.3629714846611023,0.3629714846611023
1590579973.17967415,44393902,57.6437129,11.8630006,0.4599999785423279,0.3682754635810852,0.3682754635810852
1590579973.21965814,44433886,57.6437192,11.8630006,0.4699999988079071,0.3735214173793793,0.3735214173793793
1590579973.25964212,44473870,57.643725399999994,11.8630006,0.4699999988079071,0.37878674268722534,0.37878674268722534
1590579973.29962611,44513854,57.643731599999995,11.863000699999999,0.47999998927116394,0.3841782808303833,0.3841782808303833
1590579973.33961010,44553838,57.6437379,11.863000699999999,0.47999998927116394,0.38958340883255005,0.38958340883255005
1590579973.37959409,44593822,57.6437441,11.863000699999999,0.4899999797344208,0.395096093416214,0.395096093416214
1590579973.41957808,44633806,57.643750399999995,11.863000699999999,0.5,0.4006657600402832,0.4006657600402832
1590579973.45956206,44673790,57.643756599999996,11.863000699999999,0.5,0.40620049834251404,0.40620049834251404
1590579973.49954605,44713774,57.6437628,11.8630008,0.5099999904632568,0.4117681384086609,0.4117681384086609
1590579973.53953004,44753758,57.6437691,11.8630008,0.5099999904632568,0.4172702729701996,0.4172702729701996
1590579973.57951403,44793742,57.643775299999994,11.8630008,0.5199999809265137,0.422392338514328,0.422392338514328
1590579973.61949801,44833726,57.6437816,11.8630009,0.5199999809265137,0.4272005558013916,0.4272005558013916
1590579973.65948200,44873710,57.6437878,11.8630009,0.5299999713897705,0.4320906102657318,0.4320906102657318
1590579973.69946599,44913694,57.6437941,11.8630009,0.5299999713897705,0.4366361200809479,0.4366361200809479
1590579973.73944998,44953678,57.643800299999995,11.8630009,0.5399999618530273,0.4412464499473572,0.4412464499473572
1590579973.77943420,44993662,57.6438065,11.863000999999999,0.5399999618530273,0.4459078311920166,0.4459078311920166
1590579973.81941819,45033646,57.6438128,11.863000999999999,0.550000011920929,0.45060622692108154,0.45060622692108154
1590579973.85940218,45073630,57.643819,11.863000999999999,0.550000011920929,0.4554084241390228,0.4554084241390228
1590579973.89938617,45113614,57.643825299999996,11.863000999999999,0.5600000023841858,0.4609982669353485,0.4609982669353485
1590579973.93937016,45153598,57.6438315,11.863000999999999,0.5600000023841858,0.46659785509109497,0.46659785509109497
1590579973.97935414,45193582,57.6438377,11.8630011,0.5699999928474426,0.4724094569683075,0.4724094569683075
1590579974.01933813,45233566,57.6438439,11.8630011,0.5699999928474426,0.4784063398838043,0.4784063398838043
1590579974.05932212,45273550,57.643850199999996,11.8630011,0.5799999833106995,0.4843182861804962,0.4843182861804962
1590579974.09930611,45313534,57.6438564,11.8630012,0.5899999737739563,0.4909624755382538,0.4909624755382538
1590579974.13929009,45353518,57.6438626,11.8630012,0.5899999737739563,0.4974662959575653,0.4974662959575653
1590579974.17927408,45393502,57.643868899999994,11.8630012,0.5999999642372131,0.5043411254882812,0.5043411254882812
1590579974.21925807,45433486,57.643875099999995,11.863001299999999,0.6100000143051147,0.5114892721176147,0.5114892721176147
1590579974.26007509,45474303,57.6438815,11.863001299999999,0.6100000143051147,0.5186100006103516,0.5186100006103516
1590579974.30005908,45514287,57.6438877,11.863001299999999,0.6200000047683716,0.526699960231781,0.526699960231781
1590579974.34004307,45554271,57.643893899999995,11.8630014,0.6299999952316284,0.5345174670219421,0.5345174670219421
1590579974.38002706,45594255,57.643900099999996,11.8630014,0.6399999856948853,0.541845977306366,0.541845977306366
1590579974.42001104,45634239,57.6439064,11.8630015,0.6399999856948853,0.5487602353096008,0.5487602353096008
1590579974.45999503,45674223,57.6439126,11.8630015,0.6499999761581421,0.555528998374939,0.555528998374939
1590579974.49997902,45714207,57.643918799999994,11.863001599999999,0.6599999666213989,0.5624224543571472,0.5624224543571472
1590579974.53996301,45754191,57.6439251,11.863001599999999,0.6599999666213989,0.569150984287262,0.569150984287262
1590579974.57994699,45794175,57.6439313,11.863001599999999,0.6699999570846558,0.575924277305603,0.575924277305603
1590579974.61993098,45834159,57.6439375,11.8630017,0.6800000071525574,0.5827172994613647,0.5827172994613647
1590579974.65991497,45874143,57.643943699999994,11.8630017,0.6800000071525574,0.5893874168395996,0.5893874168395996
1590579974.69989920,45914127,57.64395,11.8630018,0.6899999976158142,0.595650315284729,0.595650315284729
1590579974.73988318,45954111,57.6439562,11.8630018,0.699999988079071,0.6019143462181091,0.6019143462181091
1590579974.77986717,45994095,57.6439624,11.8630018,0.699999988079071,0.6084728837013245,0.6084728837013245
1590579974.81985116,46034079,57.6439686,11.863001899999999,0.7099999785423279,0.6152625679969788,0.6152625679969788
1590579974.85983515,46074063,57.643974799999995,11.863001899999999,0.7199999690055847,0.6219300031661987,0.6219300031661987
1590579974.89981914,46114047,57.643981,11.863001899999999,0.7199999690055847,0.62967848777771,0.62967848777771
1590579974.93980312,46154031,57.6439873,11.863002,0.7299999594688416,0.6371889710426331,0.6371889710426331
1590579974.97978711,46194015,57.6439935,11.863002,0.7400000095367432,0.6447792649269104,0.6447792649269104
1590579975.01977110,46233999,57.6439995,11.8630021,0.75,0.6523104310035706,0.6523104310035706
1590579975.05975509,46273983,57.644005699999994,11.8630021,0.75,0.6598189473152161,0.6598189473152161
1590579975.09973907,46313967,57.644011899999995,11.863002199999999,0.7599999904632568,0.667525589466095,0.667525589466095
1590579975.13972306,46353951,57.6440181,11.863002199999999,0.7699999809265137,0.6750717759132385,0.6750717759132385
1590579975.17970705,46393935,57.6440243,11.8630023,0.7799999713897705,0.6830129623413086,0.6830129623413086
1590579975.21969104,46433919,57.6440305,11.8630023,0.7899999618530273,0.6912263035774231,0.6912263035774231
1590579975.25967503,46473903,57.6440367,11.8630024,0.7899999618530273,0.6991877555847168,0.6991877555847168
1590579975.29965901,46513887,57.644042899999995,11.8630024,0.7999999523162842,0.7073385715484619,0.7073385715484619
1590579975.33964300,46553871,57.6440491,11.8630025,0.8100000023841858,0.7152294516563416,0.7152294516563416
1590579975.37962699,46593855,57.6440553,11.8630025,0.8199999928474426,0.7227059602737427,0.7227059602737427
1590579975.41961098,46633839,57.6440615,11.8630026,0.8199999928474426,0.7298809885978699,0.7298809885978699
1590579975.45959520,46673823,57.6440677,11.8630026,0.8299999833106995,0.7370348572731018,0.7370348572731018
1590579975.49957919,46713807,57.644073899999995,11.8630027,0.8399999737739563,0.7442003488540649,0.7442003488540649
1590579975.53956318,46753791,57.6440801,11.8630027,0.8499999642372131,0.7527770400047302,0.7527770400047302
1590579975.57954717,46793775,57.6440864,11.8630028,0.8700000047683716,0.7703875303268433,0.7703875303268433
1590579975.61953115,46833759,57.644092799999996,11.8630028,0.8999999761581421,0.8071610331535339,0.8071610331535339
1590579975.65951514,46873743,57.6440992,11.8630028,0.9699999690055847,0.871947169303894,0.871947169303894
1590579975.69949913,46913727,57.644105599999996,11.8630028,1.0699999332427979,0.9702490568161011,0.9702490568161011
1590579975.73948312,46953711,57.644112,11.8630028,1.1999999284744263,1.105371117591858,1.105371117591858
1590579975.77946711,46993695,57.644118399999996,11.8630027,1.3700000047683716,1.2776566743850708,1.2776566743850708
1590579975.81945109,47033679,57.6441248,11.8630026,1.5799999237060547,1.485827922821045,1.485827922821045
1590579975.85943508,47073663,57.644130999999994,11.8630025,1.8199999332427979,1.7274599075317383,1.7274599075317383
1590579975.89941907,47113647,57.644137199999996,11.8630024,2.0799999237060547,1.9887809753417969,1.9887809753417969
1590579975.93940306,47153631,57.644143199999995,11.863002199999999,2.369999885559082,2.277325391769409,2.277325391769409
1590579975.97938704,47193615,57.6441491,11.8630021,2.690000057220459,2.59014630317688,2.59014630317688
1590579976.01937103,47233599,57.644155,11.863001899999999,3.0199999809265137,2.9232800006866455,2.9232800006866455
1590579976.05935502,47273583,57.6441607,11.863001599999999,3.369999885559082,3.2725605964660645,3.2725605964660645
1590579976.09933901,47313567,57.644166399999996,11.8630014,3.7200000286102295,3.6250033378601074,3.6250033378601074
1590579976.13932300,47353551,57.644172,11.8630011,4.079999923706055,3.9890995025634766,3.9890995025634766
1590579976.17930698,47393535,57.6441775,11.8630009,4.460000038146973,4.364071846008301,4.364071846008301
1590579976.21929097,47433519,57.6441829,11.8630005,4.839999675750732,4.747602462768555,4.747602462768555
1590579976.25927520,47473503,57.644188299999996,11.8630002,5.230000019073486,5.136630058288574,5.136630058288574
1590579976.29925919,47513487,57.6441938,11.8629999,5.619999885559082,5.528241157531738,5.528241157531738
1590579976.34007597,47554304,57.6441993,11.8629996,6.029999732971191,5.9322967529296875,5.9322967529296875
1590579976.38006020,47594288,57.644204599999995,11.862999199999999,6.429999828338623,6.330325603485107,6.330325603485107
1590579976.42004418,47634272,57.6442099,11.8629987,6.829999923706055,6.7308149337768555,6.7308149337768555
1590579976.46002817,47674256,57.6442153,11.8629983,7.230000019073486,7.13018274307251,7.13018274307251
1590579976.50001216,47714240,57.6442206,11.8629979,7.62999963760376,7.531468391418457,7.531468391418457
1590579976.53999615,47754224,57.644225899999995,11.8629974,8.019999504089355,7.929905414581299,7.929905414581299
1590579976.57998013,47794208,57.6442312,11.862996899999999,8.420000076293945,8.327032089233398,8.327032089233398
1590579976.61996412,47834192,57.6442365,11.8629964,8.819999694824219,8.722312927246094,8.722312927246094
1590579976.65994811,47874176,57.6442419,11.8629959,9.210000038146973,9.11325740814209,9.11325740814209
1590579976.69993210,47914160,57.644247199999995,11.862995399999999,9.59999942779541,9.505807876586914,9.505807876586914
1590579976.73991609,47954144,57.6442525,11.8629949,9.989999771118164,9.893208503723145,9.893208503723145
1590579976.77990007,47994128,57.6442578,11.862994299999999,10.369999885559082,10.277652740478516,10.277652740478516
1590579976.81988406,48034112,57.6442632,11.8629938,10.75,10.659076690673828,10.659076690673828
1590579976.85986805,48074096,57.644268499999995,11.8629932,11.130000114440918,11.035658836364746,11.035658836364746
1590579976.89985204,48114080,57.6442738,11.8629926,11.50999927520752,11.414554595947266,11.414554595947266
1590579976.93983603,48154064,57.6442792,11.862992,11.880000114440918,11.788106918334961,11.788106918334961
1590579976.97982001,48194048,57.6442845,11.8629914,12.25,12.159012794494629,12.159012794494629
1590579977.01980400,48234032,57.644289799999996,11.862990799999999,12.619999885559082,12.526646614074707,12.526646614074707
1590579977.05978799,48274016,57.644295199999995,11.8629901,12.979999542236328,12.887751579284668,12.887751579284668
1590579977.09977198,48314000,57.6443005,11.8629895,13.34000015258789,13.249105453491211,13.249105453491211
1590579977.13975620,48353984,57.6443057,11.8629889,13.6899995803833,13.594218254089355,13.594218254089355
1590579977.17974019,48393968,57.644311099999996,11.8629882,14.039999961853027,13.942217826843262,13.942217826843262
1590579977.21972418,48433952,57.644316499999995,11.8629875,14.380000114440918,14.28397274017334,14.28397274017334
1590579977.25970817,48473936,57.644321899999994,11.8629869,14.710000038146973,14.616503715515137,14.616503715515137
1590579977.29969215,48513920,57.6443273,11.8629862,15.039999961853027,14.947004318237305,14.947004318237305
1590579977.33967614,48553904,57.6443327,11.862985499999999,15.359999656677246,15.266892433166504,15.266892433166504
1590579977.37966013,48593888,57.6443381,11.8629848,15.670000076293945,15.5786714553833,15.5786714553833
1590579977.41964412,48633872,57.6443436,11.8629842,15.979999542236328,15.881718635559082,15.881718635559082
1590579977.45962811,48673856,57.6443491,11.8629835,16.270000457763672,16.17325782775879,16.17325782775879
1590579977.49961209,48713840,57.6443546,11.8629828,16.559999465942383,16.461002349853516,16.461002349853516
1590579977.53959608,48753824,57.6443601,11.8629822,16.829999923706055,16.736576080322266,16.736576080322266
1590579977.57958007,48793808,57.644365699999994,11.8629815,17.100000381469727,17.00273895263672,17.00273895263672
1590579977.61956406,48833792,57.644371199999995,11.862980799999999,17.350000381469727,17.259662628173828,17.259662628173828
1590579977.65954804,48873776,57.6443769,11.862980199999999,17.600000381469727,17.505815505981445,17.505815505981445
1590579977.69953203,48913760,57.6443825,11.8629795,17.84000015258789,17.74857521057129,17.74857521057129
1590579977.73951602,48953744,57.644388199999995,11.8629789,18.079999923706055,17.981081008911133,17.981081008911133
1590579977.77950001,48993728,57.6443939,11.862978199999999,18.299999237060547,18.206172943115234,18.206172943115234
1590579977.81948400,49033712,57.6443996,11.862977599999999,18.520000457763672,18.42413902282715,18.42413902282715
1590579977.85946798,49073696,57.6444054,11.862976999999999,18.729999542236328,18.633338928222656,18.633338928222656
1590579977.89945197,49113680,57.6444111,11.862976399999999,18.939998626708984,18.841217041015625,18.841217041015625
1590579977.93943620,49153664,57.644416899999996,11.8629757,19.139999389648438,19.04111671447754,19.04111671447754
1590579977.97942019,49193648,57.644422799999994,11.8629751,19.329999923706055,19.23549461364746,19.23549461364746
1590579978.01940417,49233632,57.6444286,11.8629745,19.520000457763672,19.424604415893555,19.424604415893555
1590579978.05938816,49273616,57.644434499999996,11.862974,19.69999885559082,19.607223510742188,19.607223510742188
1590579978.09937215,49313600,57.6444404,11.8629734,19.889999389648438,19.790138244628906,19.790138244628906
1590579978.13935614,49353584,57.6444463,11.8629728,20.059999465942383,19.967103958129883,19.967103958129883
1590579978.17934012,49393568,57.644452199999996,11.8629722,20.239999771118164,20.14056968688965,20.14056968688965
1590579978.21932411,49433552,57.644458099999994,11.8629717,20.40999984741211,20.310861587524414,20.310861587524414
1590579978.25930810,49473536,57.6444641,11.8629711,20.56999969482422,20.476526260375977,20.476526260375977
1590579978.29929209,49513520,57.6444701,11.862970599999999,20.739999771118164,20.641643524169922,20.641643524169922
1590579978.33927608,49553504,57.6444761,11.8629701,20.899999618530273,20.80248260498047,20.80248260498047
1590579978.37926006,49593488,57.6444821,11.8629696,21.059999465942383,20.960901260375977,20.960901260375977
1590579978.42007709,49634305,57.6444883,11.862969099999999,21.219999313354492,21.120576858520508,21.120576858520508
1590579978.46006107,49674289,57.6444944,11.8629686,21.369998931884766,21.273210525512695,21.273210525512695
1590579978.50004506,49714273,57.6445004,11.8629681,21.520000457763672,21.425479888916016,21.425479888916016
1590579978.54002905,49754257,57.6445065,11.862967699999999,21.670000076293945,21.57469940185547,21.57469940185547
1590579978.58001304,49794241,57.6445126,11.8629672,21.81999969482422,21.72255516052246,21.72255516052246
1590579978.61999702,49834225,57.6445187,11.862966799999999,21.959999084472656,21.869125366210938,21.869125366210938
1590579978.65998101,49874209,57.6445249,11.8629663,22.10999870300293,22.013225555419922,22.013225555419922
1590579978.69996500,49914193,57.644531,11.862965899999999,22.25,22.15801239013672,22.15801239013672
1590579978.73994899,49954177,57.644537199999995,11.8629655,22.399999618530273,22.300342559814453,22.300342559814453
1590579978.77993298,49994161,57.644543299999995,11.8629651,22.53999900817871,22.44174575805664,22.44174575805664
1590579978.81991720,50034145,57.6445495,11.8629647,22.68000030517578,22.582239151000977,22.582239151000977
1590579978.85990119,50074129,57.6445557,11.8629643,22.81999969482422,22.72071075439453,22.72071075439453
1590579978.89988518,50114113,57.6445619,11.862963899999999,22.959999084472656,22.86008071899414,22.86008071899414
1590579978.93986917,50154097,57.6445681,11.8629635,23.09000015258789,22.99736785888672,22.99736785888672
1590579978.97985315,50194081,57.644574299999995,11.8629632,23.229999542236328,23.134553909301758,23.134553909301758
1590579979.01983714,50234065,57.6445805,11.8629629,23.369998931884766,23.27129554748535,23.27129554748535
1590579979.05982113,50274049,57.6445868,11.8629625,23.5,23.405614852905273,23.405614852905273
1590579979.09980512,50314033,57.644593,11.8629622,23.6299991607666,23.53986358642578,23.53986358642578
1590579979.13978910,50354017,57.644599199999995,11.8629619,23.76999855041504,23.671524047851562,23.671524047851562
1590579979.17977309,50394001,57.6446055,11.8629616,23.899999618530273,23.80220603942871,23.80220603942871
1590579979.21975708,50433985,57.6446116,11.8629613,24.01999855041504,23.92863655090332,23.92863655090332
1590579979.25974107,50473969,57.6446179,11.8629611,24.149999618530273,24.05538558959961,24.05538558959961
1590579979.29972506,50513953,57.644624199999996,11.8629608,24.279998779296875,24.181943893432617,24.181943893432617
1590579979.33970904,50553937,57.6446305,11.8629605,24.399999618530273,24.305736541748047,24.305736541748047
1590579979.37969303,50593921,57.6446368,11.8629603,24.51999855041504,24.428211212158203,24.428211212158203
1590579979.41967702,50633905,57.644643099999996,11.862960099999999,24.639999389648438,24.549245834350586,24.549245834350586
1590579979.45966101,50673889,57.6446494,11.8629599,24.760000228881836,24.667470932006836,24.667470932006836
1590579979.49964499,50713873,57.644655799999995,11.8629596,24.8799991607666,24.78424644470215,24.78424644470215
1590579979.53962898,50753857,57.6446621,11.8629594,24.989999771118164,24.898365020751953,24.898365020751953
1590579979.57961297,50793841,57.644668499999995,11.8629593,25.10999870300293,25.01148796081543,25.01148796081543
1590579979.61959720,50833825,57.6446748,11.8629591,25.219999313354492,25.12354850769043,25.12354850769043
1590579979.65958118,50873809,57.6446812,11.862958899999999,25.329999923706055,25.233129501342773,25.233129501342773
1590579979.69956517,50913793,57.6446876,11.8629587,25.439998626708984,25.342090606689453,25.342090606689453
1590579979.73954916,50953777,57.644693999999994,11.862958599999999,25.53999900817871,25.4487247467041,25.4487247467041
1590579979.77953315,50993761,57.6447004,11.8629585,25.649999618530273,25.55442237854004,25.55442237854004
1590579979.81951714,51033745,57.644706799999994,11.862958299999999,25.75,25.6590518951416,25.6590518951416
1590579979.85950112,51073729,57.6447132,11.8629582,25.85999870300293,25.761402130126953,25.761402130126953
1590579979.89948511,51113713,57.644719699999996,11.8629581,25.959999084472656,25.862342834472656,25.862342834472656
1590579979.93946910,51153697,57.6447261,11.862957999999999,26.059999465942383,25.96133804321289,25.96133804321289
1590579979.97945309,51193681,57.6447326,11.8629579,26.149999618530273,26.05984115600586,26.05984115600586
1590579980.01943707,51233665,57.644739099999995,11.8629578,26.25,26.15773582458496,26.15773582458496
1590579980.05942106,51273649,57.6447455,11.862957699999999,26.349998474121094,26.2537841796875,26.2537841796875
1590579980.09940505,51313633,57.644752,11.8629576,26.439998626708984,26.34857749938965,26.34857749938965
1590579980.13938904,51353617,57.644758499999995,11.8629576,26.53999900817871,26.44196319580078,26.44196319580078
1590579980.17937303,51393601,57.6447649,11.8629575,26.6299991607666,26.535722732543945,26.535722732543945
1590579980.21935701,51433585,57.644771399999996,11.8629575,26.719999313354492,26.629749298095703,26.629749298095703
1590579980.25934100,51473569,57.644777899999994,11.862957399999999,26.81999969482422,26.72259521484375,26.72259521484375
1590579980.29932499,51513553,57.6447844,11.862957399999999,26.90999984741211,26.814485549926758,26.814485549926758
1590579980.33930898,51553537,57.6447909,11.8629573,27.0,26.905427932739258,26.905427932739258
1590579980.37929320,51593521,57.6447973,11.8629573,27.09000015258789,26.996864318847656,26.996864318847656
1590579980.41927719,51633505,57.6448038,11.8629572,27.18000030517578,27.08845329284668,27.08845329284668
1590579980.45926118,51673489,57.644810299999996,11.8629572,27.26999855041504,27.1785831451416,27.1785831451416
1590579980.49924517,51713473,57.644816799999994,11.8629572,27.35999870300293,27.267492294311523,27.267492294311523
1590579980.54006219,51754290,57.6448234,11.8629571,27.44999885559082,27.356996536254883,27.356996536254883
1590579980.58004618,51794274,57.6448299,11.8629571,27.53999900817871,27.444215774536133,27.444215774536133
1590579980.62003016,51834258,57.644836399999996,11.8629571,27.6299991607666,27.530988693237305,27.530988693237305
1590579980.66001415,51874242,57.6448429,11.8629571,27.709999084472656,27.615978240966797,27.615978240966797
1590579980.69999814,51914226,57.6448494,11.862957,27.78999900817871,27.69951629638672,27.69951629638672
1590579980.73998213,51954210,57.644855899999996,11.862957,27.8799991607666,27.781204223632812,27.781204223632812
1590579980.77996612,51994194,57.644862399999994,11.862957,27.959999084472656,27.862375259399414,27.862375259399414
1590579980.81995010,52034178,57.6448689,11.862957,28.03999900817871,27.942869186401367,27.942869186401367
1590579980.85993409,52074162,57.6448754,11.862957,28.119998931884766,28.021398544311523,28.021398544311523
1590579980.89991808,52114146,57.6448818,11.862957,28.189998626708984,28.098161697387695,28.098161697387695
1590579980.93990207,52154130,57.6448883,11.862956899999999,28.26999855041504,28.17305564880371,28.17305564880371
1590579980.97988605,52194114,57.644894799999996,11.862956899999999,28.34000015258789,28.246932983398438,28.246932983398438
1590579981.01987004,52234098,57.6449013,11.862956899999999,28.40999984741211,28.31966209411621,28.31966209411621
1590579981.05985403,52274082,57.6449078,11.862956899999999,28.489999771118164,28.390413284301758,28.390413284301758
1590579981.09983802,52314066,57.644914299999996,11.862956899999999,28.559999465942383,28.460237503051758,28.460237503051758
1590579981.13982201,52354050,57.644920799999994,11.862956899999999,28.619998931884766,28.527790069580078,28.527790069580078
1590579981.17980599,52394034,57.6449273,11.862956899999999,28.689998626708984,28.59400177001953,28.59400177001953
1590579981.21978998,52434018,57.6449338,11.862956899999999,28.75,28.658733367919922,28.658733367919922
1590579981.25977397,52474002,57.644940299999995,11.862957,28.81999969482422,28.721105575561523,28.721105575561523
1590579981.29975820,52513986,57.6449467,11.862957,28.8799991607666,28.781009674072266,28.781009674072266
1590579981.33974218,52553970,57.644953199999996,11.862957,28.939998626708984,28.840177536010742,28.840177536010742
1590579981.37972617,52593954,57.644959699999994,11.862957,28.989999771118164,28.89820098876953,28.89820098876953
1590579981.41971016,52633938,57.6449662,11.862957,29.049999237060547,28.955080032348633,28.955080032348633
1590579981.45969415,52673922,57.6449727,11.862957,29.10999870300293,29.010040283203125,29.010040283203125
1590579981.49967813,52713906,57.644979199999995,11.862957,29.15999984741211,29.06317901611328,29.06317901611328
1590579981.53966212,52753890,57.6449858,11.862957,29.209999084472656,29.114328384399414,29.114328384399414
1590579981.57964611,52793874,57.6449923,11.862957,29.260000228881836,29.164480209350586,29.164480209350586
1590579981.61963010,52833858,57.644998799999996,11.862957,29.309999465942383,29.213525772094727,29.213525772094727
1590579981.65961409,52873842,57.645005299999994,11.8629571,29.35999870300293,29.260730743408203,29.260730743408203
1590579981.69959807,52913826,57.6450119,11.8629571,29.399999618530273,29.305912017822266,29.305912017822266
1590579981.73958206,52953810,57.6450184,11.8629571,29.439998626708984,29.349390029907227,29.349390029907227
1590579981.77956605,52993794,57.645024899999996,11.8629571,29.489999771118164,29.392139434814453,29.392139434814453
1590579981.81955004,53033778,57.645031499999995,11.8629571,29.529998779296875,29.434059143066406,29.434059143066406
1590579981.85953403,53073762,57.645038,11.8629572,29.56999969482422,29.474397659301758,29.474397659301758
1590579981.89951801,53113746,57.6450445,11.8629572,29.60999870300293,29.51230239868164,29.51230239868164
1590579981.93950200,53153730,57.645051099999996,11.8629572,29.639999389648438,29.5488338470459,29.5488338470459
1590579981.97948599,53193714,57.645057599999994,11.8629572,29.67999839782715,29.584150314331055,29.584150314331055
1590579982.01946998,53233698,57.6450642,11.8629573,29.709999084472656,29.618131637573242,29.618131637573242
1590579982.05945420,53273682,57.6450707,11.8629573,29.75,29.650571823120117,29.650571823120117
1590579982.09943819,53313666,57.6450773,11.862957399999999,29.779998779296875,29.681119918823242,29.681119918823242
1590579982.13942218,53353650,57.645083799999995,11.862957399999999,29.809999465942383,29.71033477783203,29.71033477783203
1590579982.17940617,53393634,57.6450904,11.862957399999999,29.829999923706055,29.738933563232422,29.738933563232422
1590579982.21939015,53433618,57.6450969,11.8629575,29.85999870300293,29.76689910888672,29.76689910888672
1590579982.25937414,53473602,57.6451035,11.8629575,29.889999389648438,29.793821334838867,29.793821334838867
1590579982.29935813,53513586,57.6451101,11.8629576,29.90999984741211,29.819793701171875,29.819793701171875
1590579982.33934212,53553570,57.645116599999994,11.8629576,29.939998626708984,29.844520568847656,29.844520568847656
1590579982.37932611,53593554,57.6451232,11.862957699999999,29.959999084472656,29.868606567382812,29.868606567382812
1590579982.41931009,53633538,57.6451298,11.862957699999999,29.989999771118164,29.8919677734375,29.8919677734375
1590579982.45929408,53673522,57.6451363,11.8629578,30.010000228881836,29.914104461669922,29.914104461669922
1590579982.49927807,53713506,57.645142899999996,11.8629579,30.029998779296875,29.934871673583984,29.934871673583984
1590579982.53926206,53753490,57.645149499999995,11.8629579,30.049999237060547,29.95452117919922,29.95452117919922
1590579982.57924604,53793474,57.645156,11.862957999999999,30.06999969482422,29.973230361938477,29.973230361938477
1590579982.62006307,53834291,57.645162799999994,11.862957999999999,30.09000015258789,29.991382598876953,29.991382598876953
1590579982.66004705,53874275,57.6451694,11.8629581,30.099998474121094,30.00798988342285,30.00798988342285
1590579982.70003104,53914259,57.6451759,11.8629582,30.119998931884766,30.023418426513672,30.023418426513672
1590579982.74001503,53954243,57.6451825,11.8629582,30.1299991607666,30.037858963012695,30.037858963012695
1590579982.77999902,53994227,57.645189099999996,11.862958299999999,30.149999618530273,30.051340103149414,30.051340103149414
1590579982.81998301,54034211,57.645195699999995,11.8629584,30.15999984741211,30.063875198364258,30.063875198364258
1590579982.85996699,54074195,57.645202299999994,11.8629584,30.170000076293945,30.075485229492188,30.075485229492188
1590579982.89995098,54114179,57.6452089,11.8629585,30.17999839782715,30.086002349853516,30.086002349853516
1590579982.93993497,54154163,57.6452154,11.862958599999999,30.189998626708984,30.095565795898438,30.095565795898438
1590579982.97991920,54194147,57.645222,11.862958599999999,30.19999885559082,30.104717254638672,30.104717254638672
1590579983.01990318,54234131,57.645228599999996,11.8629587,30.209999084472656,30.11336326599121,30.11336326599121
1590579983.05988717,54274115,57.645235199999995,11.8629588,30.219999313354492,30.12099838256836,30.12099838256836
1590579983.09987116,54314099,57.6452418,11.8629588,30.219999313354492,30.127262115478516,30.127262115478516
1590579983.13985515,54354083,57.6452484,11.862958899999999,30.229999542236328,30.1325626373291,30.1325626373291
1590579983.17983913,54394067,57.6452549,11.862959,30.229999542236328,30.137653350830078,30.137653350830078
1590579983.21982312,54434051,57.6452615,11.8629591,30.239999771118164,30.142425537109375,30.142425537109375
1590579983.25980711,54474035,57.645268099999996,11.8629591,30.239999771118164,30.14613151550293,30.14613151550293
1590579983.29979110,54514019,57.645274699999995,11.862959199999999,30.239999771118164,30.14695167541504,30.14695167541504
1590579983.33977509,54554003,57.6452813,11.8629593,30.239999771118164,30.146743774414062,30.146743774414062
1590579983.37975907,54593987,57.6452877,11.8629593,30.239999771118164,30.145631790161133,30.145631790161133
1590579983.41974306,54633971,57.645294299999996,11.8629594,30.239999771118164,30.14369773864746,30.14369773864746
1590579983.45972705,54673955,57.645300899999995,11.862959499999999,30.239999771118164,30.140907287597656,30.140907287597656
1590579983.49971104,54713939,57.645307499999994,11.8629596,30.229999542236328,30.136171340942383,30.136171340942383
1590579983.53969502,54753923,57.6453141,11.8629597,30.229999542236328,30.130870819091797,30.130870819091797
1590579983.57967901,54793907,57.6453207,11.862959799999999,30.219999313354492,30.12538719177246,30.12538719177246
1590579983.61966300,54833891,57.6453273,11.8629599,30.209999084472656,30.11957359313965,30.11957359313965
1590579983.65964699,54873875,57.6453339,11.86296,30.209999084472656,30.112979888916016,30.112979888916016
1590579983.69963098,54913859,57.645340499999996,11.86296,30.19999885559082,30.104820251464844,30.104820251464844
1590579983.73961520,54953843,57.645346999999994,11.862960099999999,30.189998626708984,30.095870971679688,30.095870971679688
1590579983.77959919,54993827,57.6453536,11.8629602,30.17999839782715,30.08601188659668,30.08601188659668
1590579983.81958318,55033811,57.6453602,11.8629603,30.170000076293945,30.07532501220703,30.07532501220703
1590579983.85956717,55073795,57.6453668,11.862960399999999,30.15999984741211,30.064146041870117,30.064146041870117
1590579983.89955115,55113779,57.6453734,11.8629605,30.149999618530273,30.051433563232422,30.051433563232422
1590579983.93953514,55153763,57.645379999999996,11.8629606,30.1299991607666,30.038358688354492,30.038358688354492
1590579983.97951913,55193747,57.645386599999995,11.862960699999999,30.119998931884766,30.02456283569336,30.02456283569336
1590579984.01950312,55233731,57.6453932,11.8629608,30.10999870300293,30.01006317138672,30.01006317138672
1590579984.05948710,55273715,57.645399899999994,11.8629609,30.09000015258789,29.995210647583008,29.995210647583008
1590579984.09947109,55313699,57.6454064,11.862961,30.06999969482422,29.978483200073242,29.978483200073242
1590579984.13945508,55353683,57.645413,11.8629611,30.059999465942383,29.961538314819336,29.961538314819336
1590579984.17943907,55393667,57.6454196,11.862961199999999,30.03999900817871,29.94455909729004,29.94455909729004
1590579984.21942306,55433651,57.6454263,11.8629613,30.01999855041504,29.92757225036621,29.92757225036621
1590579984.25940704,55473635,57.645432899999996,11.862961499999999,30.010000228881836,29.910573959350586,29.910573959350586
1590579984.29939103,55513619,57.645439499999995,11.8629616,29.989999771118164,29.89267921447754,29.89267921447754
1590579984.33937502,55553603,57.645446,11.8629617,29.969999313354492,29.874813079833984,29.874813079833984
1590579984.37935901,55593587,57.6454526,11.862961799999999,29.94999885559082,29.85702133178711,29.85702133178711
1590579984.41934299,55633571,57.6454592,11.8629619,29.92999839782715,29.839252471923828,29.839252471923828
1590579984.45932698,55673555,57.6454658,11.862962,29.920000076293945,29.821340560913086,29.821340560913086
1590579984.49931097,55713539,57.645472399999996,11.862962099999999,29.899999618530273,29.801916122436523,29.801916122436523
1590579984.53929520,55753523,57.645478999999995,11.8629622,29.8799991607666,29.78240394592285,29.78240394592285
1590579984.57927918,55793507,57.6454856,11.8629623,29.85999870300293,29.762516021728516,29.762516021728516
1590579984.61926317,55833491,57.6454922,11.862962399999999,29.84000015258789,29.742198944091797,29.742198944091797
1590579984.65924716,55873475,57.6454987,11.8629625,29.81999969482422,29.721643447875977,29.721643447875977
1590579984.70006418,55914292,57.6455055,11.8629626,29.78999900817871,29.699617385864258,29.699617385864258
1590579984.74004817,55954276,57.6455121,11.862962699999999,29.76999855041504,29.677661895751953,29.677661895751953
1590579984.78003216,55994260,57.645518599999996,11.8629628,29.75,29.65513801574707,29.65513801574707
1590579984.82001615,56034244,57.645525199999994,11.8629629,29.729999542236328,29.632034301757812,29.632034301757812
1590579984.86000013,56074228,57.6455318,11.862962999999999,29.69999885559082,29.6085205078125,29.6085205078125
1590579984.89998412,56114212,57.6455383,11.8629631,29.67999839782715,29.583328247070312,29.583328247070312
1590579984.93996811,56154196,57.6455449,11.862963299999999,29.649999618530273,29.557880401611328,29.557880401611328
1590579984.97995210,56194180,57.645551499999996,11.8629634,29.6299991607666,29.53174591064453,29.53174591064453
1590579985.01993608,56234164,57.645557999999994,11.8629635,29.599998474121094,29.50497055053711,29.50497055053711
1590579985.05992007,56274148,57.6455646,11.862963599999999,29.56999969482422,29.477937698364258,29.477937698364258
1590579985.09990406,56314132,57.6455711,11.8629637,29.53999900817871,29.448368072509766,29.448368072509766
1590579985.13988805,56354116,57.6455777,11.8629638,29.510000228881836,29.41839599609375,29.41839599609375
1590579985.17987204,56394100,57.645584199999995,11.862964,29.479999542236328,29.38793182373047,29.38793182373047
1590579985.21985602,56434084,57.6455908,11.8629641,29.44999885559082,29.356929779052734,29.356929779052734
1590579985.25984001,56474068,57.6455973,11.862964199999999,29.420000076293945,29.32539176940918,29.32539176940918
1590579985.29982400,56514052,57.645603799999996,11.8629643,29.389999389648438,29.291908264160156,29.291908264160156
1590579985.33980799,56554036,57.645610399999995,11.862964499999999,29.349998474121094,29.257932662963867,29.257932662963867
1590579985.37979198,56594020,57.6456169,11.8629646,29.31999969482422,29.22321128845215,29.22321128845215
1590579985.41977620,56634004,57.6456235,11.8629647,29.279998779296875,29.187816619873047,29.187816619873047
1590579985.45976019,56673988,57.645629799999995,11.8629648,29.25,29.152902603149414,29.152902603149414
1590579985.49974418,56713972,57.6456364,11.862964999999999,29.209999084472656,29.114938735961914,29.114938735961914
1590579985.53972816,56753956,57.6456429,11.8629651,29.170000076293945,29.076860427856445,29.076860427856445
1590579985.57971215,56793940,57.6456495,11.8629652,29.1299991607666,29.038654327392578,29.038654327392578
1590579985.61969614,56833924,57.645655999999995,11.8629654,29.099998474121094,29.000288009643555,29.000288009643555
1590579985.65968013,56873908,57.6456625,11.8629655,29.059999465942383,28.961708068847656,28.961708068847656
1590579985.69966412,56913892,57.6456691,11.862965599999999,29.01999855041504,28.921789169311523,28.921789169311523
1590579985.73964810,56953876,57.6456756,11.8629658,28.979999542236328,28.881664276123047,28.881664276123047
1590579985.77963209,56993860,57.645682099999995,11.862965899999999,28.939998626708984,28.841310501098633,28.841310501098633
1590579985.81961608,57033844,57.6456887,11.862966,28.899999618530273,28.800701141357422,28.800701141357422
1590579985.85960007,57073828,57.6456952,11.862966199999999,28.849998474121094,28.75983238220215,28.75983238220215
1590579985.89958405,57113812,57.6457017,11.8629663,28.809999465942383,28.717374801635742,28.717374801635742
1590579985.93956804,57153796,57.645708299999995,11.862966499999999,28.76999855041504,28.674686431884766,28.674686431884766
1590579985.97955203,57193780,57.6457148,11.8629666,28.729999542236328,28.631366729736328,28.631366729736328
1590579986.01953602,57233764,57.6457213,11.8629667,28.68000030517578,28.587505340576172,28.587505340576172
1590579986.05952001,57273748,57.6457279,11.8629669,28.639999389648438,28.543563842773438,28.543563842773438
1590579986.09950399,57313732,57.645734399999995,11.862967,28.59000015258789,28.497982025146484,28.497982025146484
1590579986.13948798,57353716,57.6457409,11.8629672,28.549999237060547,28.452678680419922,28.452678680419922
1590579986.17947197,57393700,57.6457474,11.8629673,28.5,28.407018661499023,28.407018661499023
1590579986.21945620,57433684,57.645753899999995,11.862967399999999,28.459999084472656,28.36104393005371,28.36104393005371
1590579986.25944018,57473668,57.645760499999994,11.8629676,28.40999984741211,28.315479278564453,28.315479278564453
1590579986.29942417,57513652,57.645767,11.862967699999999,28.35999870300293,28.26826286315918,28.26826286315918
1590579986.33940816,57553636,57.6457735,11.8629679,28.31999969482422,28.221513748168945,28.221513748168945
1590579986.37939215,57593620,57.645779999999995,11.862967999999999,28.26999855041504,28.174402236938477,28.174402236938477
1590579986.41937613,57633604,57.6457865,11.8629682,28.219999313354492,28.126998901367188,28.126998901367188
1590579986.45936012,57673588,57.645793,11.862968299999999,28.18000030517578,28.08006477355957,28.08006477355957
1590579986.49934411,57713572,57.645799499999995,11.8629685,28.1299991607666,28.031274795532227,28.031274795532227
1590579986.53932810,57753556,57.645806,11.8629686,28.079999923706055,27.983125686645508,27.983125686645508
1590579986.57931209,57793540,57.6458125,11.862968799999999,28.029998779296875,27.934829711914062,27.934829711914062
1590579986.61929607,57833524,57.645818899999995,11.862969,27.979999542236328,27.886470794677734,27.886470794677734
1590579986.65928006,57873508,57.6458254,11.862969099999999,27.93000030517578,27.8388614654541,27.8388614654541
1590579986.69926405,57913492,57.6458319,11.8629693,27.889999389648438,27.79001235961914,27.79001235961914
1590579986.73924804,57953476,57.645838399999995,11.862969399999999,27.84000015258789,27.741954803466797,27.741954803466797
1590579986.78006506,57994293,57.645844999999994,11.8629696,27.78999900817871,27.6929931640625,27.6929931640625
1590579986.82004905,58034277,57.6458515,11.862969699999999,27.739999771118164,27.64522933959961,27.64522933959961
1590579986.86003304,58074261,57.645857899999996,11.8629699,27.689998626708984,27.597978591918945,27.597978591918945
1590579986.90001702,58114245,57.6458644,11.862969999999999,27.639999389648438,27.549327850341797,27.549327850341797
1590579986.94000101,58154229,57.6458708,11.8629702,27.599998474121094,27.501102447509766,27.501102447509766
1590579986.97998500,58194213,57.645877299999995,11.862970299999999,27.549999237060547,27.453018188476562,27.453018188476562
1590579987.01996899,58234197,57.6458837,11.8629705,27.5,27.40493392944336,27.40493392944336
1590579987.05995297,58274181,57.6458902,11.862970599999999,27.44999885559082,27.35689926147461,27.35689926147461
1590579987.09993720,58314165,57.6458966,11.8629708,27.399999618530273,27.306724548339844,27.306724548339844
1590579987.13992119,58354149,57.6459031,11.862971,27.349998474121094,27.256513595581055,27.256513595581055
1590579987.17990518,58394133,57.645909499999995,11.8629711,27.299999237060547,27.206024169921875,27.206024169921875
1590579987.21988916,58434117,57.6459159,11.8629713,27.25,27.15507698059082,27.15507698059082
1590579987.25987315,58474101,57.645922299999995,11.8629714,27.19999885559082,27.10367774963379,27.10367774963379
1590579987.29985714,58514085,57.6459288,11.8629716,27.139999389648438,27.049755096435547,27.049755096435547
1590579987.33984113,58554069,57.6459352,11.862971799999999,27.09000015258789,26.995685577392578,26.995685577392578
1590579987.37982512,58594053,57.6459416,11.8629719,27.03999900817871,26.941017150878906,26.941017150878906
1590579987.41980910,58634037,57.645948,11.862972099999999,26.979999542236328,26.885879516601562,26.885879516601562
1590579987.45979309,58674021,57.645954499999995,11.8629722,26.93000030517578,26.83076286315918,26.83076286315918
1590579987.49977708,58714005,57.6459609,11.8629724,26.869998931884766,26.774307250976562,26.774307250976562
1590579987.53976107,58753989,57.6459671,11.862972599999999,26.809999465942383,26.719341278076172,26.719341278076172
1590579987.57974505,58793973,57.6459735,11.8629727,26.760000228881836,26.662996292114258,26.662996292114258
1590579987.61972904,58833957,57.6459799,11.862972899999999,26.69999885559082,26.60652732849121,26.60652732849121
1590579987.65971303,58873941,57.6459864,11.8629731,26.649999618530273,26.550033569335938,26.550033569335938
1590579987.69969702,58913925,57.645992799999995,11.862973199999999,26.59000015258789,26.49309539794922,26.49309539794922
1590579987.73968101,58953909,57.6459992,11.8629734,26.529998779296875,26.43622589111328,26.43622589111328
1590579987.77966499,58993893,57.646005599999995,11.862973499999999,26.469999313354492,26.379030227661133,26.379030227661133
1590579987.81964898,59033877,57.646012,11.8629737,26.420000076293945,26.321556091308594,26.321556091308594
1590579987.85963297,59073861,57.646018299999994,11.8629739,26.35999870300293,26.264142990112305,26.264142990112305
1590579987.89961720,59113845,57.6460247,11.862974099999999,26.299999237060547,26.204763412475586,26.204763412475586
1590579987.93960118,59153829,57.646031099999995,11.8629742,26.239999771118164,26.145662307739258,26.145662307739258
1590579987.97958517,59193813,57.6460375,11.862974399999999,26.18000030517578,26.086719512939453,26.086719512939453
1590579988.01956916,59233797,57.646043899999995,11.8629746,26.119998931884766,26.027864456176758,26.027864456176758
1590579988.05955315,59273781,57.6460503,11.862974699999999,26.059999465942383,25.96908187866211,25.96908187866211
1590579988.09953713,59313765,57.646056699999995,11.8629749,26.0,25.90875816345215,25.90875816345215
1590579988.13952112,59353749,57.6460631,11.8629751,25.939998626708984,25.84851837158203,25.84851837158203
1590579988.17950511,59393733,57.646069399999995,11.862975299999999,25.8799991607666,25.787757873535156,25.787757873535156
1590579988.21948910,59433717,57.6460758,11.8629754,25.81999969482422,25.72653579711914,25.72653579711914
1590579988.25947309,59473701,57.646082199999995,11.862975599999999,25.760000228881836,25.665456771850586,25.665456771850586
1590579988.29945707,59513685,57.6460886,11.8629758,25.69999885559082,25.603321075439453,25.603321075439453
1590579988.33944106,59553669,57.646094899999994,11.862976,25.639999389648438,25.541505813598633,25.541505813598633
1590579988.37942505,59593653,57.6461013,11.8629762,25.56999969482422,25.47907829284668,25.47907829284668
1590579988.41940904,59633637,57.646107699999995,11.8629763,25.510000228881836,25.41621971130371,25.41621971130371
1590579988.45939302,59673621,57.646114,11.8629765,25.44999885559082,25.353897094726562,25.353897094726562
1590579988.49937701,59713605,57.6461204,11.862976699999999,25.3799991607666,25.28995132446289,25.28995132446289
1590579988.53936100,59753589,57.646126699999996,11.8629769,25.31999969482422,25.22654914855957,25.22654914855957
1590579988.57934499,59793573,57.6461331,11.862976999999999,25.260000228881836,25.162782669067383,25.162782669067383
1590579988.61932898,59833557,57.646139399999996,11.8629772,25.189998626708984,25.098756790161133,25.098756790161133
1590579988.65931320,59873541,57.6461458,11.8629774,25.1299991607666,25.035337448120117,25.035337448120117
1590579988.69929719,59913525,57.646152099999995,11.862977599999999,25.06999969482422,24.970911026000977,24.970911026000977
1590579988.73928118,59953509,57.6461585,11.8629778,25.0,24.907148361206055,24.907148361206055
1590579988.77926517,59993493,57.646164799999994,11.862977899999999,24.939998626708984,24.843143463134766,24.843143463134766
1590579988.81924915,60033477,57.6461712,11.8629781,24.869998931884766,24.778963088989258,24.778963088989258
1590579988.86006618,60074294,57.646177699999996,11.8629783,24.809999465942383,24.714014053344727,24.714014053344727
1590579988.90005016,60114278,57.646184,11.862978499999999,24.75,24.65024185180664,24.65024185180664
1590579988.94003415,60154262,57.646190399999995,11.8629786,24.68000030517578,24.587284088134766,24.587284088134766
1590579988.98001814,60194246,57.6461967,11.862978799999999,24.619998931884766,24.524925231933594,24.524925231933594
1590579989.02000213,60234230,57.646203,11.862979,24.559999465942383,24.463098526000977,24.463098526000977
1590579989.05998611,60274214,57.646209299999995,11.8629792,24.5,24.402027130126953,24.402027130126953
1590579989.09997010,60314198,57.6462157,11.862979399999999,24.43000030517578,24.33967399597168,24.33967399597168
1590579989.13995409,60354182,57.646221999999995,11.8629795,24.369998931884766,24.278182983398438,24.278182983398438
1590579989.17993808,60394166,57.6462283,11.8629797,24.309999465942383,24.21710205078125,24.21710205078125
1590579989.21992207,60434150,57.6462346,11.8629799,24.25,24.15648651123047,24.15648651123047
1590579989.25990605,60474134,57.646240899999995,11.86298,24.189998626708984,24.09676742553711,24.09676742553711
1590579989.29989004,60514118,57.6462472,11.862980199999999,24.1299991607666,24.037391662597656,24.037391662597656
1590579989.33987403,60554102,57.6462534,11.8629804,24.06999969482422,23.978744506835938,23.978744506835938
1590579989.37985802,60594086,57.646259699999995,11.862980499999999,24.01999855041504,23.920591354370117,23.920591354370117
1590579989.41984200,60634070,57.646266,11.8629807,23.959999084472656,23.862871170043945,23.862871170043945
1590579989.45982599,60674054,57.6462722,11.8629809,23.899999618530273,23.805660247802734,23.805660247802734
1590579989.49980998,60714038,57.646278499999994,11.862981,23.84000015258789,23.74750328063965,23.74750328063965
