TimeUS,RollRate,Roll,DesRoll
0,-4.52954,0,-40.023
0.025,-8.76996,-0.113238,-40.023
0.05,-12.7269,-0.332487,-40.023
0.075,-16.4065,-0.65066,-40.023
0.1,-19.8151,-1.06082,-40.023
0.125,-22.9598,-1.5562,-40.023
0.15,-25.8477,-2.1302,-40.023
0.175,-28.4863,-2.77639,-40.023
0.2,-30.8834,-3.48855,-40.023
0.225,-33.0468,-4.26063,-40.023
0.25,-34.9848,-5.0868,-40.023
0.275,-36.7056,-5.96142,-40.023
0.3,-38.2175,-6.87906,-40.023
0.325,-39.5291,-7.8345,-40.023
0.35,-40.6489,-8.82273,-40.023
0.375,-41.5853,-9.83895,-40.023
0.4,-42.347,-10.8786,-40.023
0.425,-42.9423,-11.9373,-40.023
0.45,-43.3799,-13.0108,-40.023
0.475,-43.668,-14.0953,-40.023
0.5,-43.815,-15.187,-40.023
0.525,-43.8291,-16.2824,-40.023
0.55,-43.7183,-17.3781,-40.023
0.575,-43.4906,-18.4711,-40.023
0.6,-43.1537,-19.5583,-40.023
0.625,-42.7153,-20.6372,-40.023
0.65,-42.1827,-21.7051,-40.023
0.675,-41.5633,-22.7596,-40.023
0.7,-40.8641,-23.7987,-40.023
0.725,-40.0919,-24.8203,-40.023
0.75,-39.2534,-25.8226,-40.023
0.775,-38.3549,-26.8039,-40.023
0.8,-37.4028,-27.7628,-40.023
0.825,-36.4029,-28.6979,-40.023
0.85,-35.361,-29.608,-40.023
0.875,-34.2826,-30.492,-40.023
0.9,-33.1731,-31.3491,-40.023
0.925,-32.0373,-32.1784,-40.023
0.95,-30.8802,-32.9793,-40.023
0.975,-29.7062,-33.7513,-40.023
1,-28.5199,-34.494,-40.023
1.025,-27.3252,-35.207,-40.023
1.05,-26.1261,-35.8901,-40.023
1.075,-24.9262,-36.5433,-40.023
1.1,-23.729,-37.1664,-40.023
1.125,-22.5377,-37.7596,-40.023
1.15,-21.3552,-38.3231,-40.023
1.175,-20.1845,-38.857,-40.023
1.2,-19.0281,-39.3616,-40.023
1.225,-17.8884,-39.8373,-40.023
1.25,-16.7676,-40.2845,-40.023
1.275,-15.6678,-40.7037,-40.023
1.3,-14.5907,-41.0954,-40.023
1.325,-13.538,-41.4601,-40.023
1.35,-12.5112,-41.7986,-40.023
1.375,-11.5117,-42.1114,-40.023
1.4,-10.5405,-42.3992,-40.023
1.425,-9.59882,-42.6627,-40.023
1.45,-8.68739,-42.9026,-40.023
1.475,-7.80698,-43.1198,-40.023
1.5,-6.95819,-43.315,-40.023
1.525,-6.14148,-43.489,-40.023
1.55,-5.35722,-43.6425,-40.023
1.575,-4.60564,-43.7764,-40.023
1.6,-3.88688,-43.8916,-40.023
1.625,-3.20096,-43.9887,-40.023
1.65,-2.54783,-44.0688,-40.023
1.675,-1.92733,-44.1325,-40.023
1.7,-1.33923,-44.1806,-40.023
1.725,-0.783217,-44.2141,-40.023
1.75,-0.258903,-44.2337,-40.023
1.775,0.234161,-44.2402,-40.023
1.8,0.696484,-44.2343,-40.023
1.825,1.12864,-44.2169,-40.023
1.85,1.53123,-44.1887,-40.023
1.875,1.90494,-44.1504,-40.023
1.9,2.25046,-44.1028,-40.023
1.925,2.56853,-44.0465,-40.023
1.95,2.85994,-43.9823,-40.023
1.975,3.12548,-43.9108,-40.023
2,3.36597,-43.8327,-40.023
2.025,3.58228,-43.7485,-40.023
2.05,3.77525,-43.659,-40.023
2.075,3.94577,-43.5646,-40.023
2.1,4.09472,-43.4659,-40.023
2.125,4.22301,-43.3636,-40.023
2.15,4.33152,-43.258,-40.023
2.175,4.42115,-43.1497,-40.023
2.2,4.49281,-43.0392,-40.023
2.225,4.54738,-42.9269,-40.023
2.25,4.58576,-42.8132,-40.023
2.275,4.60883,-42.6985,-40.023
2.3,4.61745,-42.5833,-40.023
2.325,4.61247,-42.4679,-40.023
2.35,4.59475,-42.3526,-40.023
2.375,4.56511,-42.2377,-40.023
2.4,4.52437,-42.1236,-40.023
2.425,4.47331,-42.0105,-40.023
2.45,4.4127,-41.8986,-40.023
2.475,4.34331,-41.7883,-40.023
2.5,4.26586,-41.6797,-40.023
2.525,4.18107,-41.5731,-40.023
2.55,4.08962,-41.4686,-40.023
2.575,3.99218,-41.3663,-40.023
2.6,3.88938,-41.2665,-40.023
2.625,3.78185,-41.1693,-40.023
2.65,3.67019,-41.0747,-40.023
2.675,3.55494,-40.983,-40.023
2.7,3.43668,-40.8941,-40.023
2.725,3.3159,-40.8082,-40.023
2.75,3.1931,-40.7253,-40.023
2.775,3.06877,-40.6455,-40.023
2.8,2.94333,-40.5687,-40.023
2.825,2.81722,-40.4952,-40.023
2.85,2.69083,-40.4247,-40.023
2.875,2.56454,-40.3575,-40.023
2.9,2.4387,-40.2933,-40.023
2.925,2.31363,-40.2324,-40.023
2.95,2.18965,-40.1745,-40.023
2.975,2.06703,-40.1198,-40.023
3,1.94604,-40.0681,-40.023
3.025,1.82693,-40.0195,-40.023
3.05,1.70992,-39.9738,-40.023
3.075,1.5952,-39.931,-40.023
3.1,1.48297,-39.8912,-40.023
3.125,1.37339,-39.8541,-40.023
3.15,1.26661,-39.8198,-40.023
3.175,1.16276,-39.7881,-40.023
3.2,1.06196,-39.759,-40.023
3.225,0.964295,-39.7325,-40.023
3.25,0.869862,-39.7084,-40.023
3.275,0.778729,-39.6866,-40.023
3.3,0.690952,-39.6671,-40.023
3.325,0.606574,-39.6499,-40.023
3.35,0.525628,-39.6347,-40.023
3.375,0.448131,-39.6216,-40.023
3.4,0.374095,-39.6104,-40.023
3.425,0.303516,-39.601,-40.023
3.45,0.236383,-39.5934,-40.023
3.475,0.172677,-39.5875,-40.023
3.5,0.112369,-39.5832,-40.023
3.525,0.0554212,-39.5804,-40.023
3.55,0.0017906,-39.579,-40.023
3.575,-0.0485735,-39.579,-40.023
3.6,-0.095728,-39.5802,-40.023
3.625,-0.139735,-39.5826,-40.023
3.65,-0.180663,-39.5861,-40.023
3.675,-0.218582,-39.5906,-40.023
3.7,-0.25357,-39.596,-40.023
3.725,-0.285707,-39.6024,-40.023
3.75,-0.315074,-39.6095,-40.023
3.775,-0.341759,-39.6174,-40.023
3.8,-0.365849,-39.6259,-40.023
3.825,-0.387435,-39.6351,-40.023
3.85,-0.406607,-39.6448,-40.023
3.875,-0.42346,-39.6549,-40.023
3.9,-0.438086,-39.6655,-40.023
3.925,-0.450581,-39.6765,-40.023
3.95,-0.461038,-39.6877,-40.023
3.975,-0.469554,-39.6993,-40.023
4,-0.476221,-39.711,-40.023
4.025,-0.481134,-39.7229,-40.023
4.05,-0.484387,-39.7349,-40.023
4.075,-0.48607,-39.747,-40.023
4.1,-0.486276,-39.7592,-40.023
4.125,-0.485093,-39.7714,-40.023
4.15,-0.482609,-39.7835,-40.023
4.175,-0.478912,-39.7956,-40.023
4.2,-0.474085,-39.8075,-40.023
4.225,-0.468212,-39.8194,-40.023
4.25,-0.461364,-39.8311,-40.0229
4.275,-0.453444,-39.8426,-40.0213
4.3,-0.444296,-39.854,-40.0175
4.325,-0.43377,-39.8651,-40.0115
4.35,-0.42173,-39.8759,-40.0033
4.375,-0.408046,-39.8864,-39.9928
4.4,-0.392598,-39.8966,-39.9801
4.425,-0.375277,-39.9065,-39.965
4.45,-0.355981,-39.9158,-39.9476
4.475,-0.334615,-39.9247,-39.9278
4.5,-0.311095,-39.9331,-39.9056
4.525,-0.285342,-39.9409,-39.881
4.55,-0.257287,-39.948,-39.8539
4.575,-0.226864,-39.9545,-39.8243
4.6,-0.194018,-39.9601,-39.7922
4.625,-0.158698,-39.965,-39.7575
4.65,-0.120859,-39.9689,-39.7201
4.675,-0.0804645,-39.972,-39.6802
4.7,-0.0374798,-39.974,-39.6375
4.725,0.00812212,-39.9749,-39.5922
4.75,0.0563644,-39.9747,-39.5441
4.775,0.107265,-39.9733,-39.4932
4.8,0.160838,-39.9706,-39.4394
4.825,0.217092,-39.9666,-39.3828
4.85,0.276035,-39.9612,-39.3233
4.875,0.337668,-39.9543,-39.2609
4.9,0.40199,-39.9458,-39.1955
4.925,0.468997,-39.9358,-39.127
4.95,0.538682,-39.9241,-39.0555
4.975,0.611035,-39.9106,-38.9809
5,0.686044,-39.8953,-38.9032
5.025,0.763694,-39.8782,-38.8223
5.05,0.843968,-39.8591,-38.7381
5.075,0.926849,-39.838,-38.6507
5.1,1.01231,-39.8148,-38.56
5.125,1.10034,-39.7895,-38.466
5.15,1.19091,-39.762,-38.3686
5.175,1.284,-39.7322,-38.2678
5.2,1.37957,-39.7001,-38.1636
5.225,1.4776,-39.6656,-38.0558
5.25,1.57806,-39.6287,-37.9446
5.275,1.68092,-39.5892,-37.8297
5.3,1.78616,-39.5472,-37.7113
5.325,1.89373,-39.5025,-37.5893
5.35,2.00361,-39.4552,-37.4636
5.375,2.11577,-39.4051,-37.3342
5.4,2.23016,-39.3522,-37.2011
5.425,2.34675,-39.2965,-37.0642
5.45,2.46551,-39.2378,-36.9235
5.475,2.58641,-39.1762,-36.779
5.5,2.70939,-39.1115,-36.6307
5.525,2.83443,-39.0438,-36.4785
5.55,2.96149,-38.9729,-36.3225
5.575,3.09052,-38.8989,-36.1625
5.6,3.22149,-38.8216,-35.9986
5.625,3.35434,-38.7411,-35.8308
5.65,3.48905,-38.6572,-35.659
5.675,3.62556,-38.57,-35.4832
5.7,3.76382,-38.4793,-35.3034
5.725,3.9038,-38.3852,-35.1197
5.75,4.04545,-38.2877,-34.9319
5.775,4.18871,-38.1865,-34.7402
5.8,4.33353,-38.0818,-34.5444
5.825,4.47986,-37.9735,-34.3447
5.85,4.62765,-37.8615,-34.1409
5.875,4.77685,-37.7458,-33.9332
5.9,4.92738,-37.6264,-33.7215
5.925,5.0792,-37.5032,-33.5058
5.95,5.23224,-37.3762,-33.2862
5.975,5.38645,-37.2454,-33.0627
6,5.54174,-37.1107,-32.8352
6.025,5.69806,-36.9722,-32.6039
6.05,5.85534,-36.8297,-32.3688
6.075,6.0135,-36.6833,-32.1298
6.1,6.17246,-36.533,-31.8871
6.125,6.33216,-36.3787,-31.6407
6.15,6.49251,-36.2204,-31.3905
6.175,6.65342,-36.0581,-31.1368
6.2,6.81482,-35.8917,-30.8795
6.225,6.97661,-35.7214,-30.6186
6.25,7.1387,-35.547,-30.3543
6.275,7.301,-35.3685,-30.0866
6.3,7.46341,-35.186,-29.8156
6.325,7.62584,-34.9994,-29.5414
6.35,7.78818,-34.8087,-29.264
6.375,7.95033,-34.614,-28.9835
6.4,8.11217,-34.4153,-28.7
6.425,8.27361,-34.2125,-28.4136
6.45,8.43452,-34.0056,-28.1243
6.475,8.59479,-33.7948,-27.8324
6.5,8.7543,-33.5799,-27.5378
6.525,8.91294,-33.361,-27.2408
6.55,9.07057,-33.1382,-26.9413
6.575,9.22708,-32.9114,-26.6395
6.6,9.38234,-32.6808,-26.3355
6.625,9.53621,-32.4462,-26.0295
6.65,9.68858,-32.2078,-25.7215
6.675,9.8393,-31.9656,-25.4117
6.7,9.98824,-31.7196,-25.1002
6.725,10.1353,-31.4699,-24.7871
6.75,10.2802,-31.2165,-24.4726
6.775,10.423,-30.9595,-24.1568
6.8,10.5635,-30.6989,-23.8398
6.825,10.7015,-30.4349,-23.5217
6.85,10.8369,-30.1673,-23.2028
6.875,10.9696,-29.8964,-22.8831
6.9,11.0994,-29.6222,-22.5628
6.925,11.2261,-29.3447,-22.242
6.95,11.3497,-29.064,-21.9208
6.975,11.4701,-28.7803,-21.5995
7,11.587,-28.4935,-21.2781
7.025,11.7004,-28.2038,-20.9567
7.05,11.81,-27.9113,-20.6357
7.075,11.9159,-27.6161,-20.3149
7.1,12.0179,-27.3182,-19.9947
7.125,12.1158,-27.0177,-19.6751
7.15,12.2095,-26.7148,-19.3564
7.175,12.2989,-26.4096,-19.0385
7.2,12.3839,-26.1021,-18.7217
7.225,12.4645,-25.7925,-18.4061
7.25,12.5404,-25.4809,-18.0918
7.275,12.6116,-25.1674,-17.7789
7.3,12.678,-24.8521,-17.4676
7.325,12.7395,-24.5352,-17.1581
7.35,12.7961,-24.2167,-16.8503
7.375,12.8476,-23.8968,-16.5445
7.4,12.894,-23.5756,-16.2408
7.425,12.9352,-23.2532,-15.9392
7.45,12.9712,-22.9299,-15.6399
7.475,13.0019,-22.6056,-15.343
7.5,13.0272,-22.2805,-15.0485
7.525,13.0472,-21.9549,-14.7567
7.55,13.0618,-21.6287,-14.4675
7.575,13.0709,-21.3021,-14.1811
7.6,13.0746,-20.9754,-13.8976
7.625,13.0728,-20.6485,-13.617
7.65,13.0656,-20.3217,-13.3394
7.675,13.0529,-19.995,-13.0649
7.7,13.0347,-19.6687,-12.7936
7.725,13.0111,-19.3428,-12.5255
7.75,12.9821,-19.0176,-12.2607
7.775,12.9478,-18.693,-11.9992
7.8,12.9081,-18.3693,-11.7412
7.825,12.8631,-18.0466,-11.4866
7.85,12.8129,-17.725,-11.2355
7.875,12.7575,-17.4047,-10.988
7.9,12.697,-17.0858,-10.744
7.925,12.6315,-16.7684,-10.5037
7.95,12.561,-16.4526,-10.2669
7.975,12.4857,-16.1385,-10.0339
8,12.4055,-15.8264,-9.80456
8.025,12.3207,-15.5163,-9.57893
8.05,12.2314,-15.2082,-9.35702
8.075,12.1375,-14.9025,-9.13884
8.1,12.0394,-14.599,-8.92443
8.125,11.937,-14.298,-8.71375
8.15,11.8304,-13.9996,-8.50682
8.175,11.7199,-13.7038,-8.30364
8.2,11.6056,-13.4108,-8.1042
8.225,11.4875,-13.1207,-7.90851
8.25,11.3659,-12.8335,-7.71652
8.275,11.2408,-12.5494,-7.52825
8.3,11.1125,-12.2684,-7.34367
8.325,10.981,-11.9905,-7.16276
8.35,10.8465,-11.716,-6.98551
8.375,10.7092,-11.4449,-6.81189
8.4,10.5692,-11.1771,-6.64184
8.425,10.4267,-10.9129,-6.47537
8.45,10.2818,-10.6522,-6.31245
8.475,10.1347,-10.3952,-6.15303
8.5,9.98555,-10.1418,-5.99708
8.525,9.83451,-9.89218,-5.84456
8.55,9.68173,-9.64632,-5.69543
8.575,9.52738,-9.40427,-5.54965
8.6,9.37162,-9.16609,-5.40719
8.625,9.21459,-8.9318,-5.26801
8.65,9.05645,-8.70143,-5.13203
8.675,8.89737,-8.47502,-4.99925
8.7,8.73749,-8.25259,-4.86959
8.725,8.57697,-8.03415,-4.74302
8.75,8.41595,-7.81973,-4.61949
8.775,8.25459,-7.60933,-4.49894
8.8,8.09302,-7.40296,-4.38133
8.825,7.9314,-7.20064,-4.26661
8.85,7.76986,-7.00235,-4.15472
8.875,7.60853,-6.80811,-4.04562
8.9,7.44756,-6.61789,-3.93925
8.925,7.28707,-6.4317,-3.83554
8.95,7.12719,-6.24953,-3.73447
8.975,6.96805,-6.07135,-3.63598
9,6.80976,-5.89715,-3.54
9.025,6.65245,-5.7269,-3.44648
9.05,6.49622,-5.56059,-3.35538
9.075,6.34118,-5.39818,-3.26663
9.1,6.18744,-5.23966,-3.1802
9.125,6.0351,-5.08497,-3.09601
9.15,5.88426,-4.93409,-3.01403
9.175,5.735,-4.78699,-2.9342
9.2,5.58742,-4.64361,-2.85646
9.225,5.4416,-4.50392,-2.78076
9.25,5.29762,-4.36788,-2.70707
9.275,5.15556,-4.23544,-2.63531
9.3,5.01548,-4.10656,-2.56544
9.325,4.87745,-3.98117,-2.49742
9.35,4.74154,-3.85923,-2.43118
9.375,4.60781,-3.74069,-2.36671
9.4,4.4763,-3.6255,-2.30392
9.425,4.34706,-3.51359,-2.24278
9.45,4.22015,-3.40491,-2.18325
9.475,4.0956,-3.29941,-2.12527
9.5,3.97345,-3.19702,-2.06881
9.525,3.85373,-3.09768,-2.0138
9.55,3.73648,-3.00134,-1.96024
9.575,3.62171,-2.90793,-1.90805
9.6,3.50945,-2.81739,-1.85721
9.625,3.39972,-2.72965,-1.80766
9.65,3.29253,-2.64466,-1.75936
9.675,3.18788,-2.56234,-1.7123
9.7,3.0858,-2.48265,-1.66642
9.725,2.98627,-2.4055,-1.62167
9.75,2.8893,-2.33084,-1.57804
9.775,2.7949,-2.25861,-1.53547
9.8,2.70304,-2.18874,-1.49394
9.825,2.61372,-2.12116,-1.45342
9.85,2.52694,-2.05582,-1.41387
9.875,2.44266,-1.99265,-1.37526
9.9,2.36089,-1.93158,-1.33755
9.925,2.28159,-1.87256,-1.30072
9.95,2.20474,-1.81552,-1.26475
9.975,2.13033,-1.7604,-1.22957
10,2.05832,-1.70714,-1.19521
10.025,1.98867,-1.65568,-1.1616
10.05,1.92138,-1.60597,-1.12872
10.075,1.85639,-1.55793,-1.09657
10.1,1.79367,-1.51152,-1.06509
10.125,1.73319,-1.46668,-1.03429
10.15,1.67491,-1.42335,-1.00412
10.175,1.61879,-1.38148,-0.974587
10.2,1.56479,-1.34101,-0.945643
10.225,1.51286,-1.30189,-0.917275
10.25,1.46297,-1.26407,-0.889476
10.275,1.41507,-1.22749,-0.862213
10.3,1.36911,-1.19212,-0.835471
10.325,1.32505,-1.15789,-0.809236
10.35,1.28285,-1.12476,-0.783496
10.375,1.24245,-1.09269,-0.758223
10.4,1.2038,-1.06163,-0.733405
10.425,1.16687,-1.03154,-0.709031
10.45,1.18081,-1.00236,-0.250254
10.475,1.2603,-0.972843,0.365972
10.5,1.40027,-0.941336,0.97473
10.525,-0.65405,-0.906329,-18.3035
10.55,-2.56526,-0.922681,-18.1627
10.575,-4.33662,-0.986812,-18.0211
10.6,-5.97147,-1.09523,-17.8783
10.625,-7.47332,-1.24451,-17.7335
10.65,-8.84576,-1.43135,-17.5863
10.675,-10.0925,-1.65249,-17.4362
10.7,-11.2172,-1.9048,-17.2828
10.725,-12.2238,-2.18523,-17.1254
10.75,-13.1161,-2.49083,-16.9638
10.775,-13.898,-2.81873,-16.7976
10.8,-14.5736,-3.16618,-16.6263
10.825,-15.1467,-3.53052,-16.4496
10.85,-15.6213,-3.90919,-16.2673
10.875,-16.0015,-4.29972,-16.0789
10.9,-16.2912,-4.69976,-15.8843
10.925,-16.4944,-5.10704,-15.6832
10.95,-16.615,-5.5194,-15.4754
10.975,-16.6569,-5.93477,-15.2607
11,-16.624,-6.35119,-15.0388
11.025,-16.5202,-6.76679,-14.8098
11.05,-16.3492,-7.1798,-14.5733
11.075,-16.1148,-7.58853,-14.3294
11.1,-15.8206,-7.9914,-14.0779
11.125,-15.4703,-8.38691,-13.8188
11.15,-15.0674,-8.77367,-13.5521
11.175,-14.6154,-9.15035,-13.2777
11.2,-14.1177,-9.51574,-12.9956
11.225,-13.5776,-9.86868,-12.7059
11.25,-12.9984,-10.2081,-12.4086
11.275,-12.3832,-10.5331,-12.1038
11.3,-11.7352,-10.8427,-11.7916
11.325,-11.0574,-11.136,-11.472
11.35,-10.3527,-11.4125,-11.1453
11.375,-9.62385,-11.6713,-10.8116
11.4,-8.87373,-11.9119,-10.471
11.425,-8.10495,-12.1337,-10.1238
11.45,-7.32012,-12.3364,-9.77011
11.475,-6.52172,-12.5194,-9.41023
11.5,-5.71216,-12.6824,-9.04437
11.525,-4.89378,-12.8252,-8.67281
11.55,-4.0688,-12.9475,-8.29584
11.575,-3.2394,-13.0493,-7.91375
11.6,-2.40764,-13.1303,-7.52684
11.625,-1.57551,-13.1904,-7.13544
11.65,-0.744912,-13.2298,-6.73991
11.675,0.0823154,-13.2485,-6.34058
11.7,0.904432,-13.2464,-5.93781
11.725,1.71977,-13.2238,-5.53197
11.75,2.52674,-13.1808,-5.12344
11.775,3.32383,-13.1176,-4.71261
11.8,4.10961,-13.0345,-4.29985
11.825,4.88271,-12.9318,-3.88558
11.85,5.64185,-12.8097,-3.4702
11.875,6.38581,-12.6687,-3.05408
11.9,7.11345,-12.509,-2.63764
11.925,7.8237,-12.3312,-2.22127
11.95,8.51556,-12.1356,-1.80537
11.975,9.18809,-11.9227,-1.39034
12,9.84043,-11.693,-0.976556
12.025,10.4718,-11.447,-0.564406
12.05,11.0814,-11.1852,-0.154257
12.075,11.6686,-10.9082,0.253512
12.1,12.2329,-10.6165,0.658549
12.125,12.7736,-10.3106,1.0605
12.15,13.2903,-9.99129,1.45904
12.175,13.7825,-9.65904,1.85384
12.2,14.2499,-9.31447,2.24458
12.225,14.6923,-8.95822,2.63096
12.25,15.1093,-8.59092,3.01269
12.275,15.5007,-8.21319,3.38951
12.3,15.8665,-7.82567,3.76115
12.325,16.2065,-7.42901,4.12737
12.35,16.5207,-7.02385,4.48793
12.375,16.8092,-6.61083,4.84262
12.4,17.0719,-6.1906,5.19125
12.425,17.3091,-5.7638,5.53362
12.45,17.5208,-5.33107,5.86956
12.475,17.7074,-4.89305,6.19892
12.5,17.8689,-4.45037,6.52155
12.525,18.0058,-4.00364,6.83732
12.55,18.1184,-3.5535,7.14613
12.575,18.207,-3.10054,7.44787
12.6,18.2719,-2.64537,7.74245
12.625,18.3138,-2.18857,8.0298
12.65,18.333,-1.73072,8.30985
12.675,18.33,-1.2724,8.58255
12.7,18.3053,-0.814148,8.84788
12.725,18.2596,-0.356515,9.10579
12.75,16.856,0.0999746,-2.4604
12.775,15.503,0.521374,-2.34833
12.8,14.2006,0.908948,-2.24247
12.825,12.9489,1.26396,-2.14239
12.85,11.7476,1.58768,-2.04768
12.875,10.5964,1.88137,-1.95794
12.9,9.4952,2.14628,-1.87277
12.925,8.44344,2.38366,-1.79179
12.95,7.44068,2.59475,-1.71464
12.975,6.48637,2.78077,-1.64097
13,5.57991,2.94293,-1.57044
13.025,4.72061,3.08242,-1.50273
13.05,3.90776,3.20044,-1.43752
13.075,3.14057,3.29813,-1.37451
13.1,2.4182,3.37665,-1.31343
13.125,1.73978,3.4371,-1.254
13.15,1.10439,3.4806,-1.19597
13.175,0.511072,3.50821,-1.13908
13.2,-0.0411647,3.52098,-1.08311
13.225,-0.553344,3.51996,-1.02785
13.25,-1.02652,3.50612,-0.973079
13.275,-1.46176,3.48046,-0.918617
13.3,-1.86016,3.44391,-0.864284
13.325,-2.22285,3.39741,-0.809905
13.35,-2.55094,3.34184,-0.755334
13.375,-2.84559,3.27807,-0.700423
13.4,-3.10795,3.20693,-0.645038
13.425,-3.33918,3.12923,-0.58906
13.45,-3.54043,3.04575,-0.532382
13.475,-3.71289,2.95724,-0.474902
13.5,-3.85772,2.86441,-0.416528
13.525,-3.97608,2.76797,-0.357187
13.55,-4.06914,2.66857,-0.296808
13.575,-4.13805,2.56684,-0.235331
13.6,-4.18397,2.46339,-0.172708
13.625,-4.20802,2.35879,-0.108886
13.65,-4.21133,2.25359,-0.0438422
13.675,-4.19503,2.14831,0.0224503
13.7,-4.16021,2.04343,0.0900138
13.725,-4.10795,1.93943,0.158853
13.75,-4.03931,1.83673,0.228978
13.775,-3.95536,1.73574,0.300386
13.8,-3.85711,1.63686,0.373059
13.825,-3.74557,1.54043,0.446994
13.85,-3.62173,1.44679,0.522159
13.875,-3.48656,1.35625,0.598526
13.9,-3.34099,1.26909,0.676078
13.925,-3.18594,1.18556,0.754761
13.95,-3.02231,1.10591,0.834547
13.975,-2.85096,1.03035,0.915379
14,-2.67274,0.959081,0.997222
14.025,-2.48845,0.892262,1.08001
14.05,-2.29889,0.830051,1.1637
14.075,-2.10483,0.772579,1.24821
14.1,-1.907,0.719958,1.3335
14.125,-1.7061,0.672283,1.41951
14.15,-1.50283,0.629631,1.50615
14.175,-1.29784,0.59206,1.59337
14.2,-1.09175,0.559614,1.68109
14.225,-0.885163,0.53232,1.76925
14.25,-0.678659,0.510191,1.85776
14.275,-0.472781,0.493225,1.94656
14.3,-0.268052,0.481405,2.03557
14.325,-0.0649632,0.474704,2.12471
14.35,0.136016,0.47308,2.21392
14.375,0.334445,0.47648,2.30311
14.4,0.529907,0.484841,2.39221
14.425,0.722012,0.498089,2.48114
14.45,0.910392,0.516139,2.56983
14.475,1.09471,0.538899,2.65821
14.5,1.27464,0.566267,2.74619
14.525,1.44989,0.598133,2.83371
14.55,1.6202,0.63438,2.9207
14.575,1.78531,0.674885,3.00708
14.6,1.94499,0.719518,3.09278
14.625,2.09905,0.768143,3.17774
14.65,2.24729,0.820619,3.26188
14.675,2.38956,0.876801,3.34516
14.7,2.5257,0.93654,3.42749
14.725,2.6556,0.999683,3.50883
14.75,2.77915,1.06607,3.5891
14.775,2.89625,1.13555,3.66825
14.8,3.00685,1.20796,3.74623
14.825,3.11087,1.28313,3.82298
14.85,3.20829,1.3609,3.89845
14.875,3.29908,1.44111,3.97259
14.9,3.38323,1.52358,4.04535
14.925,3.46075,1.60817,4.11669
14.95,3.53166,1.69468,4.18656
14.975,3.59598,1.78298,4.25492
15,3.65377,1.87288,4.32174
15.025,3.70508,1.96422,4.38698
15.05,3.74998,2.05685,4.4506
15.075,3.78854,2.1506,4.51257
15.1,3.82085,2.24531,4.57286
15.125,3.84702,2.34083,4.63145
15.15,3.86713,2.43701,4.6883
15.175,3.88132,2.53368,4.74341
15.2,3.88969,2.63072,4.79673
15.225,3.89238,2.72796,4.84827
15.25,3.88952,2.82527,4.89799
15.275,3.88125,2.92251,4.94589
15.3,3.86772,3.01954,4.99196
15.325,3.84907,3.11623,5.03617
15.35,3.82547,3.21246,5.07853
15.375,3.79706,3.3081,5.11903
15.4,3.76402,3.40302,5.15766
15.425,3.7265,3.49712,5.19443
15.45,3.68468,3.59028,5.22932
15.475,3.63872,3.6824,5.26235
15.5,3.5888,3.77337,5.29351
15.525,3.53508,3.86309,5.32281
15.55,3.47774,3.95147,5.35024
15.575,3.41696,4.03841,5.37584
15.6,3.35291,4.12383,5.39959
15.625,3.28575,4.20766,5.42152
15.65,3.21568,4.2898,5.44162
15.675,3.14285,4.37019,5.45993
15.7,3.06744,4.44876,5.47644
15.725,2.98962,4.52545,5.49118
15.75,2.90956,4.60019,5.50416
15.775,2.82742,4.67293,5.5154
15.8,2.74337,4.74361,5.52492
15.825,2.65757,4.8122,5.53275
15.85,2.57018,4.87864,5.53889
15.875,2.48136,4.94289,5.54338
15.9,2.39125,5.00493,5.54623
15.925,2.30002,5.06471,5.54748
15.95,2.20781,5.12221,5.54714
15.975,2.11476,5.1774,5.54524
16,2.02102,5.23027,5.54181
16.025,1.92672,5.2808,5.53686
16.05,1.83199,5.32897,5.53044
16.075,1.73696,5.37477,5.52255
16.1,1.64176,5.41819,5.51324
16.125,1.54651,5.45923,5.50254
16.15,1.45134,5.4979,5.49047
16.175,1.35634,5.53418,5.47705
16.2,1.26163,5.56809,5.46234
16.225,1.16732,5.59963,5.44634
16.25,1.07351,5.62881,5.42909
16.275,0.9803,5.65565,5.41063
16.3,0.887772,5.68016,5.39097
16.325,0.796021,5.70235,5.37015
16.35,0.705131,5.72225,5.34821
16.375,0.615183,5.73988,5.32517
16.4,0.526253,5.75526,5.30106
16.425,0.438414,5.76842,5.27592
16.45,0.351733,5.77938,5.24977
16.475,0.266275,5.78817,5.22265
16.5,0.1821,5.79483,5.19458
16.525,0.0992651,5.79938,5.1656
16.55,0.0178229,5.80186,5.13574
16.575,-0.0621789,5.80231,5.10502
16.6,-0.140694,5.80075,5.07348
16.625,-0.21768,5.79724,5.04115
16.65,-0.2931,5.79179,5.00805
16.675,-0.366919,5.78447,4.97422
16.7,-0.638919,5.77529,3.17413
16.725,-0.899274,5.75932,3.11445
16.75,-1.14802,5.73684,3.0542
16.775,-1.38522,5.70814,2.99349
16.8,-1.61094,5.67351,2.9324
16.825,-1.82528,5.63323,2.87105
16.85,-2.02834,5.5876,2.80951
16.875,-2.22025,5.53689,2.74788
16.9,-2.40115,5.48139,2.68622
16.925,-2.5712,5.42136,2.62463
16.95,-2.73055,5.35708,2.56318
16.975,-2.87938,5.28881,2.50195
17,-3.01789,5.21683,2.44099
17.025,-3.14627,5.14138,2.38039
17.05,-3.26472,5.06273,2.3202
17.075,-3.37348,4.98111,2.26049
17.1,-3.47275,4.89677,2.20131
17.125,-3.56277,4.80995,2.14271
17.15,-3.64378,4.72088,2.08475
17.175,-3.71602,4.62979,2.02747
17.2,-3.77974,4.53689,1.97092
17.225,-3.83519,4.44239,1.91513
17.25,-3.88263,4.34651,1.86015
17.275,-3.92232,4.24945,1.80603
17.3,-3.95452,4.15139,1.75277
17.325,-3.97949,4.05253,1.70042
17.35,-3.99749,3.95304,1.64903
17.375,-4.00879,3.8531,1.59858
17.4,-4.01366,3.75288,1.54911
17.425,-4.01236,3.65254,1.50067
17.45,-4.00516,3.55223,1.45324
17.475,-3.99231,3.4521,1.40685
17.5,-3.97408,3.3523,1.36151
17.525,-3.95073,3.25294,1.31724
17.55,-3.92251,3.15418,1.27405
17.575,-3.88969,3.05611,1.23194
17.6,-3.8525,2.95887,1.19092
17.625,-3.8112,2.86256,1.15098
17.65,-3.76603,2.76728,1.11214
17.675,-3.71723,2.67313,1.07441
17.7,-3.66504,2.5802,1.03776
17.725,-3.60969,2.48857,1.00221
17.75,-3.5514,2.39833,0.967736
17.775,-3.4904,2.30954,0.934355
17.8,-3.4269,2.22228,0.902036
17.825,-3.36112,2.13661,0.870793
17.85,-3.29325,2.05258,0.840606
17.875,-3.2235,1.97025,0.811464
17.9,-3.15207,1.88966,0.783364
17.925,-3.07915,1.81086,0.756279
17.95,-3.00491,1.73388,0.730214
17.975,-2.92953,1.65876,0.705145
18,-2.85319,1.58552,0.681052
18.025,-2.77605,1.51419,0.657923
18.05,-2.69827,1.44479,0.635748
18.075,-2.62001,1.37734,0.614503
18.1,-2.54141,1.31183,0.594168
18.125,-2.46261,1.2483,0.574737
18.15,-2.38375,1.18673,0.55618
18.175,-2.30496,1.12714,0.538493
18.2,-2.22636,1.06952,0.521644
18.225,-2.14807,1.01386,0.505601
18.25,-2.07021,0.960156,0.490382
18.275,-1.99287,0.908401,0.47593
18.3,-1.91615,0.858579,0.462247
18.325,-1.84017,0.810675,0.449307
18.35,-1.76499,0.764671,0.437083
18.375,-1.69071,0.720546,0.425561
18.4,-1.6174,0.678279,0.414723
18.425,-1.54514,0.637843,0.404552
18.45,-1.474,0.599215,0.395014
18.475,-1.40403,0.562365,0.386101
18.5,-1.3353,0.527264,0.377785
18.525,-1.26786,0.493882,0.370049
18.55,-1.20176,0.462185,0.362877
18.575,-1.13704,0.432141,0.356235
18.6,-1.07375,0.403715,0.350134
18.625,-1.01191,0.376871,0.34452
18.65,-0.95156,0.351573,0.339408
18.675,-0.892727,0.327784,0.334742
18.7,-0.835432,0.305466,0.330545
18.725,-0.779697,0.284581,0.326759
18.75,-0.725536,0.265088,0.323397
18.775,-1.32249,0.24695,-5.4188
18.8,-1.88801,0.213887,-5.49586
18.825,-2.42233,0.166687,-5.57218
18.85,-2.92573,0.106129,-5.64756
18.875,-3.39854,0.0329858,-5.72178
18.9,-3.84115,-0.0519778,-5.79466
18.925,-4.25397,-0.148007,-5.86603
18.95,-4.63745,-0.254356,-5.93571
18.975,-4.9921,-0.370292,-6.00353
19,-5.31843,-0.495094,-6.06934
19.025,-5.61702,-0.628055,-6.133
19.05,-5.88845,-0.768481,-6.19438
19.075,-6.13333,-0.915692,-6.25334
19.1,-6.35231,-1.06902,-6.30978
19.125,-6.54604,-1.22783,-6.36358
19.15,-6.71522,-1.39148,-6.41464
19.175,-6.86053,-1.55936,-6.46287
19.2,-6.9827,-1.73088,-6.5082
19.225,-7.08246,-1.90545,-6.55053
19.25,-7.16053,-2.08251,-6.58981
19.275,-7.21767,-2.26152,-6.62596
19.3,-7.25464,-2.44196,-6.65896
19.325,-7.2722,-2.62333,-6.68874
19.35,-7.27112,-2.80513,-6.71526
19.375,-7.25216,-2.98691,-6.73849
19.4,-7.21609,-3.16821,-6.75841
19.425,-7.16368,-3.34862,-6.775
19.45,-7.0957,-3.52771,-6.78826
19.475,-7.01291,-3.7051,-6.79815
19.5,-6.91607,-3.88042,-6.80469
19.525,-6.80592,-4.05333,-6.80787
19.55,-6.68323,-4.22347,-6.80771
19.575,-6.54871,-4.39055,-6.80422
19.6,-6.4031,-4.55427,-6.79742
19.625,-6.24712,-4.71435,-6.78734
19.65,-6.08146,-4.87053,-6.77398
19.675,-5.90682,-5.02256,-6.7574
19.7,-5.72389,-5.17023,-6.73762
19.725,-5.53333,-5.31333,-6.71468
19.75,-5.33578,-5.45166,-6.68862
19.775,-5.13189,-5.58506,-6.6595
19.8,-4.92229,-5.71336,-6.62736
19.825,-4.70757,-5.83641,-6.59225
19.85,-4.48832,-5.9541,-6.55423
19.875,-4.26512,-6.06631,-6.51335
19.9,-4.03853,-6.17294,-6.46968
19.925,-3.80909,-6.2739,-6.42328
19.95,-3.5773,-6.36913,-6.37421
19.975,-3.34369,-6.45856,-6.32253
20,-3.10874,-6.54215,-6.26832
20.025,-2.8729,-6.61987,-6.21165
20.05,-2.63664,-6.6917,-6.15259
20.075,-2.40039,-6.75761,-6.09121
20.1,-2.16455,-6.81762,-6.02758
20.125,-1.92953,-6.87173,-5.96178
20.15,-1.6957,-6.91997,-5.89389
20.175,-1.46343,-6.96237,-5.824
20.2,-1.23306,-6.99895,-5.75215
20.225,-1.0049,-7.02978,-5.67846
20.25,-0.779285,-7.0549,-5.60297
20.275,-0.55649,-7.07438,-5.52579
20.3,-0.336791,-7.08829,-5.44698
20.325,-0.120447,-7.09671,-5.36663
20.35,0.0922997,-7.09973,-5.28482
20.375,0.301224,-7.09742,-5.20162
20.4,0.506114,-7.08989,-5.11712
20.425,0.706776,-7.07723,-5.03139
20.45,0.903031,-7.05957,-4.9445
20.475,1.09471,-7.03699,-4.85655
20.5,1.28167,-7.00962,-4.76761
20.525,1.46377,-6.97758,-4.67773
20.55,1.64088,-6.94099,-4.58703
20.575,1.81291,-6.89996,-4.49555
20.6,1.97974,-6.85464,-4.40337
20.625,2.14129,-6.80515,-4.31058
20.65,1.33529,-6.75162,-12.7193
20.675,0.573151,-6.71823,-12.7328
20.7,-0.145557,-6.7039,-12.7455
20.725,-0.821323,-6.70754,-12.7571
20.75,-1.45471,-6.72808,-12.7673
20.775,-2.04632,-6.76444,-12.7761
20.8,-2.59685,-6.8156,-12.783
20.825,-3.107,-6.88052,-12.7879
20.85,-3.57756,-6.9582,-12.7907
20.875,-4.00933,-7.04764,-12.7911
20.9,-4.40318,-7.14787,-12.789
20.925,-4.76001,-7.25795,-12.7841
20.95,-5.08072,-7.37695,-12.7765
20.975,-5.36629,-7.50397,-12.7658
21,-5.6177,-7.63813,-12.752
21.025,-5.83596,-7.77857,-12.735
21.05,-6.02208,-7.92447,-12.7146
21.075,-6.17712,-8.07502,-12.6908
21.1,-6.30213,-8.22945,-12.6635
21.125,-6.39819,-8.387,-12.6326
21.15,-6.46636,-8.54695,-12.598
21.175,-6.50775,-8.70861,-12.5597
21.2,-6.52343,-8.87131,-12.5175
21.225,-6.51449,-9.03439,-12.4716
21.25,-6.48203,-9.19726,-12.4218
21.275,-6.42714,-9.35931,-12.368
21.3,-6.35088,-9.51998,-12.3104
21.325,-6.25434,-9.67876,-12.2489
21.35,-6.13859,-9.83512,-12.1834
21.375,-6.00467,-9.98858,-12.114
21.4,-5.85363,-10.1387,-12.0407
21.425,-5.6865,-10.285,-11.9634
21.45,-5.5043,-10.4272,-11.8823
21.475,-5.30803,-10.5648,-11.7973
21.5,-5.09865,-10.6975,-11.7085
21.525,-4.87715,-10.825,-11.6159
21.55,-4.64446,-10.9469,-11.5196
21.575,-4.4015,-11.063,-11.4196
21.6,-4.14918,-11.1731,-11.3159
21.625,-3.88837,-11.2768,-11.2087
21.65,-3.61994,-11.374,-11.098
21.675,-3.34472,-11.4645,-10.9838
21.7,-3.06351,-11.5481,-10.8662
21.725,-2.77712,-11.6247,-10.7453
21.75,-2.48629,-11.6941,-10.6212
21.775,-2.19176,-11.7563,-10.494
21.8,-1.89426,-11.8111,-10.3637
21.825,-1.59447,-11.8584,-10.2305
21.85,-1.29305,-11.8983,-10.0943
21.875,-0.990632,-11.9306,-9.95545
21.9,-0.687842,-11.9554,-9.81388
21.925,-0.385263,-11.9726,-9.66973
21.95,-0.0834575,-11.9822,-9.52312
21.975,0.217036,-11.9843,-9.37413
22,0.515702,-11.9789,-9.22287
22.025,0.812053,-11.966,-9.06947
22.05,1.10562,-11.9457,-8.91401
22.075,1.39597,-11.918,-8.75662
22.1,1.68267,-11.8831,-8.5974
22.125,1.96534,-11.8411,-8.43648
22.15,2.24359,-11.7919,-8.27395
22.175,2.51709,-11.7358,-8.10994
22.2,2.7855,-11.6729,-7.94456
22.225,3.04851,-11.6033,-7.77793
22.25,3.30584,-11.5271,-7.61015
22.275,3.55722,-11.4444,-7.44135
22.3,3.80242,-11.3555,-7.27163
22.325,4.04119,-11.2604,-7.10112
22.35,4.27334,-11.1594,-6.92992
22.375,4.49868,-11.0526,-6.75815
22.4,4.71704,-10.9401,-6.58592
22.425,4.14191,-10.8222,-13.3615
22.45,3.59978,-10.7186,-13.2764
22.475,3.09022,-10.6286,-13.1908
22.5,2.61277,-10.5514,-13.1046
22.525,2.16689,-10.4861,-13.0176
22.55,1.75204,-10.4319,-12.9296
22.575,1.36761,-10.3881,-12.8405
22.6,1.01299,-10.3539,-12.7502
22.625,0.68752,-10.3286,-12.6585
22.65,0.390504,-10.3114,-12.5652
22.675,0.121233,-10.3016,-12.4704
22.7,-0.121029,-10.2986,-12.3739
22.725,-0.337036,-10.3016,-12.2755
22.75,-0.527564,-10.31,-12.1752
22.775,-0.6934,-10.3232,-12.0729
22.8,-0.835349,-10.3406,-11.9686
22.825,-0.954223,-10.3615,-11.8621
22.85,-1.05085,-10.3853,-11.7534
22.875,-1.12605,-10.4116,-11.6425
22.9,-1.18066,-10.4397,-11.5292
22.925,-1.21553,-10.4692,-11.4137
22.95,-1.23148,-10.4996,-11.2958
22.975,-1.22937,-10.5304,-11.1755
23,-1.21003,-10.5612,-11.0528
23.025,-1.17428,-10.5914,-10.9278
23.05,-1.12297,-10.6208,-10.8003
23.075,-1.05691,-10.6488,-10.6704
23.1,-0.976914,-10.6753,-10.5381
23.125,-0.883799,-10.6997,-10.4035
23.15,-0.778359,-10.7218,-10.2665
23.175,-0.661379,-10.7412,-10.1271
23.2,-0.533634,-10.7578,-9.9855
23.225,-0.395887,-10.7711,-9.84161
23.25,-0.248887,-10.781,-9.6955
23.275,-0.0933689,-10.7872,-9.54722
23.3,0.069948,-10.7896,-9.39682
23.325,0.240359,-10.7878,-9.24436
23.35,0.417176,-10.7818,-9.0899
23.375,0.599728,-10.7714,-8.93349
23.4,0.787359,-10.7564,-8.77522
23.425,0.979433,-10.7367,-8.61515
23.45,1.17533,-10.7122,-8.45334
23.475,1.37445,-10.6828,-8.28989
23.5,1.57622,-10.6485,-8.12487
23.525,1.78005,-10.6091,-7.95837
23.55,1.98542,-10.5646,-7.79047
23.575,2.1918,-10.5149,-7.62125
23.6,2.39867,-10.4601,-7.45081
23.625,2.60556,-10.4002,-7.27925
23.65,2.81198,-10.335,-7.10665
23.675,3.0175,-10.2647,-6.93311
23.7,3.22168,-10.1893,-6.75872
23.725,3.42411,-10.1087,-6.58359
23.75,3.6244,-10.0231,-6.40781
23.775,3.82217,-9.93254,-6.23148
23.8,4.01707,-9.83698,-6.05471
23.825,4.20876,-9.73655,-5.87759
23.85,4.39692,-9.63134,-5.70021
23.875,4.58126,-9.52141,-5.52269
23.9,4.76148,-9.40688,-5.34512
23.925,4.93733,-9.28784,-5.16761
23.95,5.10856,-9.16441,-4.99024
23.975,5.27493,-9.0367,-4.81312
24,5.43623,-8.90482,-4.63634
24.025,5.59227,-8.76892,-4.46001
24.05,5.74287,-8.62911,-4.28421
24.075,5.88785,-8.48554,-4.10905
24.1,5.69163,-8.33834,-6.89864
24.125,5.50716,-8.19605,-6.7582
24.15,5.33419,-8.05837,-6.6184
24.175,5.17243,-7.92502,-6.47921
24.2,5.02159,-7.79571,-6.34059
24.225,4.88137,-7.67017,-6.20251
24.25,4.75146,-7.54813,-6.06493
24.275,4.63156,-7.42935,-5.92782
24.3,4.52132,-7.31356,-5.79116
24.325,4.42044,-7.20053,-5.65493
24.35,4.32858,-7.09001,-5.51911
24.375,4.2454,-6.9818,-5.38368
24.4,4.17056,-6.87567,-5.24862
24.425,4.10374,-6.7714,-5.11395
24.45,4.04458,-6.66881,-4.97962
24.475,3.99274,-6.56769,-4.84567
24.5,3.9479,-6.46787,-4.71206
24.525,3.90969,-6.36918,-4.57882
24.55,3.8778,-6.27143,-4.44593
24.575,3.85188,-6.17449,-4.31341
24.6,3.83159,-6.07819,-4.18127
24.625,3.81661,-5.9824,-4.04952
24.65,3.80662,-5.88699,-3.91816
24.675,3.80128,-5.79182,-3.78722
24.7,3.80028,-5.69679,-3.6567
24.725,3.80332,-5.60178,-3.52663
24.75,3.81007,-5.5067,-3.39702
24.775,3.82025,-5.41145,-3.2679
24.8,3.83355,-5.31594,-3.1393
24.825,3.84969,-5.2201,-3.01122
24.85,3.86838,-5.12386,-2.8837
24.875,3.88936,-5.02715,-2.75677
24.9,3.91234,-4.92992,-2.63045
24.925,3.93708,-4.83211,-2.50477
24.95,3.96332,-4.73368,-2.37976
24.975,3.99081,-4.6346,-2.25545
25,4.01932,-4.53483,-2.13186
25.025,4.04862,-4.43435,-2.00904
25.05,4.07849,-4.33313,-1.887
25.075,4.10872,-4.23117,-1.76579
25.1,4.1391,-4.12845,-1.64543
25.125,4.16943,-4.02497,-1.52596
25.15,4.19954,-3.92074,-1.40739
25.175,4.22924,-3.81575,-1.28978
25.2,4.25836,-3.71002,-1.17315
25.225,4.28674,-3.60356,-1.05753
25.25,4.31423,-3.49639,-0.942953
25.275,4.34068,-3.38853,-0.829445
25.3,4.36595,-3.28002,-0.71704
25.325,4.38993,-3.17087,-0.605772
25.35,4.41248,-3.06112,-0.495664
25.375,4.4335,-2.95081,-0.386743
25.4,4.45289,-2.83997,-0.279047
25.425,4.47054,-2.72865,-0.172595
25.45,4.48636,-2.61689,-0.0674113
25.475,4.50029,-2.50473,0.0364777
25.5,4.51224,-2.39222,0.139034
25.525,4.52215,-2.27941,0.240253
25.55,4.52996,-2.16636,0.340098
25.575,4.53562,-2.05311,0.438548
25.6,4.53909,-1.93972,0.535592
25.625,4.54032,-1.82624,0.631202
25.65,4.53928,-1.71273,0.725357
25.675,4.53596,-1.59925,0.818041
25.7,4.53032,-1.48585,0.909243
25.725,4.52237,-1.3726,0.998945
25.75,4.51208,-1.25954,1.08713
25.775,4.49946,-1.14673,1.17378
25.8,4.48452,-1.03425,1.25889
25.825,4.46725,-0.922135,1.34245
25.85,4.44768,-0.810454,1.42445
25.875,4.42581,-0.699262,1.50486
25.9,4.40169,-0.588617,1.58371
25.925,4.37532,-0.478574,1.66096
25.95,4.34675,-0.369191,1.73662
25.975,4.316,-0.260523,1.81069
26,4.28312,-0.152623,1.88316
26.025,4.24814,-0.0455449,1.95402
26.05,4.21112,0.0606587,2.02328
26.075,4.1721,0.165937,2.09094
26.1,4.13113,0.270239,2.157
26.125,4.08827,0.373517,2.22146
26.15,4.04357,0.475724,2.28432
26.175,3.99708,0.576813,2.34558
26.2,3.94888,0.67674,2.40526
26.225,3.89903,0.775462,2.46337
26.25,3.84757,0.872938,2.51989
26.275,3.7946,0.969127,2.57485
26.3,3.74016,1.06399,2.62825
26.325,3.68432,1.1575,2.6801
26.35,3.62717,1.2496,2.73042
26.375,3.56875,1.34028,2.7792
26.4,3.50916,1.4295,2.82648
26.425,3.44845,1.51723,2.87225
26.45,3.3867,1.60344,2.91654
26.475,3.32398,1.68811,2.95935
26.5,3.26036,1.77121,3.0007
26.525,3.19592,1.85272,3.0406
26.55,3.13071,1.93262,3.07908
26.575,3.06482,2.01088,3.11615
26.6,2.99832,2.08751,3.15182
26.625,2.93127,2.16246,3.18612
26.65,2.86375,2.23574,3.21906
26.675,2.79582,2.30734,3.25066
26.7,2.72755,2.37723,3.28093
26.725,2.659,2.44542,3.30991
26.75,2.59025,2.5119,3.3376
26.775,2.52135,2.57665,3.36404
26.8,2.45238,2.63969,3.38922
26.825,2.38338,2.701,3.41319
26.85,2.31443,2.76058,3.43596
26.875,2.24558,2.81844,3.45755
26.9,2.17689,2.87458,3.47799
26.925,2.10841,2.929,3.49728
26.95,2.0402,2.98171,3.51546
26.975,1.97232,3.03272,3.53255
27,1.9048,3.08203,3.54856
27.025,1.83771,3.12965,3.56354
27.05,1.77109,3.17559,3.57748
27.075,1.70499,3.21987,3.59042
27.1,1.63945,3.26249,3.60236
27.125,1.57452,3.30348,3.61336
27.15,1.51022,3.34284,3.62341
27.175,1.44661,3.3806,3.63254
27.2,1.38372,3.41676,3.64079
27.225,1.32158,3.45136,3.64815
27.25,1.26024,3.4844,3.65467
27.275,1.19971,3.5159,3.66035
27.3,1.14003,3.54589,3.66523
27.325,1.08123,3.57439,3.66931
27.35,1.02334,3.60143,3.67264
27.375,0.966367,3.62701,3.67521
27.4,0.910349,3.65117,3.67706
27.425,0.855301,3.67393,3.67821
27.45,0.801244,3.69531,3.67867
27.475,0.748194,3.71534,3.67846
27.5,0.696168,3.73405,3.67762
27.525,0.64518,3.75145,3.67615
27.55,0.595241,3.76758,3.67407
27.575,0.546363,3.78246,3.67141
27.6,0.498556,3.79612,3.66818
27.625,0.451826,3.80858,3.6644
27.65,0.406181,3.81988,3.66009
27.675,0.361625,3.83003,3.65527
27.7,0.318163,3.83907,3.64996
27.725,0.275795,3.84703,3.64416
27.75,0.234524,3.85392,3.6379
27.775,0.194348,3.85979,3.6312
27.8,0.155267,3.86464,3.62408
27.825,0.117277,3.86853,3.61654
27.85,0.0803741,3.87146,3.6086
27.875,0.0445543,3.87347,3.60029
27.9,0.00981085,3.87458,3.5916
27.925,-0.0238634,3.87483,3.58257
27.95,-0.056476,3.87423,3.5732
27.975,-0.0880363,3.87282,3.56351
28,-0.118554,3.87062,3.55351
28.025,-0.14804,3.86765,3.54321
28.05,-0.176505,3.86395,3.53264
28.075,-0.203962,3.85954,3.52179
28.1,-0.230424,3.85444,3.51069
28.125,-0.255903,3.84868,3.49934
28.15,-0.280414,3.84228,3.48777
28.175,-0.303973,3.83527,3.47597
28.2,-0.326593,3.82767,3.46396
28.225,-0.348292,3.81951,3.45174
28.25,-0.369085,3.8108,3.43934
28.275,-0.388989,3.80157,3.42677
28.3,-0.40802,3.79185,3.41402
28.325,-0.426196,3.78165,3.40112
28.35,-0.443536,3.77099,3.38806
28.375,-0.460056,3.7599,3.37487
28.4,-0.475774,3.7484,3.36154
28.425,-0.490711,3.73651,3.34809
28.45,-0.504882,3.72424,3.33453
28.475,-4.40548,3.71162,-31.0262
28.5,-8.07637,3.60148,-31.2091
28.525,-11.5208,3.39957,-31.3885
28.55,-14.7423,3.11155,-31.5636
28.575,-17.7449,2.743,-31.734
28.6,-20.5328,2.29937,-31.899
28.625,-23.1106,1.78605,-32.0582
28.65,-25.483,1.20829,-32.2112
28.675,-27.6552,0.571213,-32.3576
28.7,-29.6324,-0.120167,-32.4971
28.725,-31.4202,-0.860977,-32.6294
28.75,-33.0241,-1.64648,-32.7544
28.775,-34.4501,-2.47208,-32.8719
28.8,-35.704,-3.33334,-32.9818
28.825,-36.792,-4.22594,-33.0838
28.85,-37.7202,-5.14574,-33.178
28.875,-38.4948,-6.08874,-33.2643
28.9,-39.1221,-7.05111,-33.3427
28.925,-39.6084,-8.02916,-33.4131
28.95,-39.9601,-9.01937,-33.4755
28.975,-40.1834,-10.0184,-33.5299
29,-40.2846,-11.023,-33.5764
29.025,-40.2701,-12.0301,-33.615
29.05,-40.146,-13.0368,-33.6457
29.075,-39.9184,-14.0405,-33.6686
29.1,-39.5935,-15.0384,-33.6837
29.125,-39.1773,-16.0283,-33.6911
29.15,-38.6755,-17.0077,-33.6909
29.175,-38.0941,-17.9746,-33.683
29.2,-37.4386,-18.9269,-33.6675
29.225,-36.7145,-19.8629,-33.6446
29.25,-35.9273,-20.7808,-33.6142
29.275,-35.0822,-21.679,-33.5765
29.3,-34.1843,-22.556,-33.5315
29.325,-33.2386,-23.4106,-33.4793
29.35,-32.2498,-24.2416,-33.4199
29.375,-31.2225,-25.0478,-33.3534
29.4,-30.1612,-25.8284,-33.2799
29.425,-29.0702,-26.5824,-33.1994
29.45,-27.9537,-27.3092,-33.1121
29.475,-26.8155,-28.008,-33.0178
29.5,-25.6594,-28.6784,-32.9168
29.525,-24.489,-29.3199,-32.8091
29.55,-23.3078,-29.9321,-32.6947
29.575,-22.1191,-30.5148,-32.5737
29.6,-20.9258,-31.0678,-32.4462
29.625,-19.7309,-31.5909,-32.3122
29.65,-18.5372,-32.0842,-32.1717
29.675,-17.3473,-32.5476,-32.0248
29.7,-16.1635,-32.9813,-31.8716
29.725,-14.9882,-33.3854,-31.7121
29.75,-13.8233,-33.7601,-31.5463
29.775,-12.671,-34.1057,-31.3742
29.8,-11.5329,-34.4225,-31.196
29.825,-10.4107,-34.7108,-31.0116
29.85,-9.30599,-34.9711,-30.821
29.875,-8.22005,-35.2037,-30.6243
29.9,-7.15415,-35.4092,-30.4215
29.925,-6.10938,-35.5881,-30.2126
29.95,-5.08673,-35.7408,-29.9976
29.975,-4.08706,-35.868,-29.7766
30,-3.11112,-35.9701,-29.5496
30.025,-2.15953,-36.0479,-29.3166
30.05,-1.23283,-36.1019,-29.0776
30.075,-0.331443,-36.1327,-28.8326
30.1,0.544296,-36.141,-28.5816
30.125,1.39414,-36.1274,-28.3248
30.15,2.21794,-36.0926,-28.062
30.175,3.01561,-36.0371,-27.7934
30.2,3.78715,-35.9617,-27.519
30.225,4.53263,-35.867,-27.2388
30.25,5.25216,-35.7537,-26.9528
30.275,5.94595,-35.6224,-26.6612
30.3,6.61423,-35.4738,-26.3639
30.325,7.2573,-35.3084,-26.0611
30.35,7.87551,-35.127,-25.7529
30.375,8.46922,-34.9301,-25.4392
30.4,9.03886,-34.7184,-25.1201
30.425,9.58487,-34.4924,-24.7959
30.45,10.1077,-34.2528,-24.4665
30.475,10.608,-34.0001,-24.1321
30.5,11.0861,-33.7349,-23.7927
30.525,11.5426,-33.4577,-23.4486
30.55,11.978,-33.1692,-23.0998
30.575,12.393,-32.8697,-22.7465
30.6,12.7882,-32.5599,-22.3888
30.625,13.1639,-32.2402,-22.0269
30.65,13.521,-31.9111,-21.6609
30.675,13.8598,-31.5731,-21.291
30.7,14.1811,-31.2266,-20.9174
30.725,14.4854,-30.872,-20.5402
30.75,14.7731,-30.5099,-20.1596
30.775,15.045,-30.1406,-19.7758
30.8,15.3014,-29.7644,-19.389
30.825,15.5431,-29.3819,-18.9995
30.85,15.7704,-28.9933,-18.6073
30.875,15.9838,-28.5991,-18.2128
30.9,16.1839,-28.1995,-17.8161
30.925,16.3711,-27.7949,-17.4174
30.95,16.5459,-27.3856,-17.017
30.975,16.7087,-26.972,-16.6152
31,16.86,-26.5542,-16.212
31.025,17,-26.1327,-15.8079
31.05,17.1292,-25.7077,-15.4029
31.075,17.248,-25.2795,-14.9974
31.1,17.3567,-24.8483,-14.5915
31.125,17.4555,-24.4144,-14.1855
31.15,17.5449,-23.978,-13.7797
31.175,17.6251,-23.5394,-13.3742
31.2,17.6963,-23.0988,-12.9694
31.225,17.7589,-22.6563,-12.5654
31.25,17.8129,-22.2124,-12.1625
31.275,17.8588,-21.767,-11.761
31.3,17.8965,-21.3206,-11.3609
31.325,17.9264,-20.8732,-10.9627
31.35,17.9487,-20.425,-10.5664
31.375,17.9633,-19.9763,-10.1724
31.4,17.9706,-19.5272,-9.78074
31.425,17.9706,-19.0779,-9.39177
31.45,17.9635,-18.6287,-9.00565
31.475,17.9493,-18.1796,-8.62258
31.5,17.9282,-17.7309,-8.24276
31.525,17.9002,-17.2827,-7.86637
31.55,17.8655,-16.8351,-7.4936
31.575,17.8241,-16.3885,-7.12463
31.6,17.7761,-15.9429,-6.75963
31.625,17.7216,-15.4985,-6.39876
31.65,17.6607,-15.0555,-6.04218
31.675,17.5933,-14.6139,-5.69004
31.7,17.5196,-14.1741,-5.34248
31.725,17.4397,-13.7361,-4.99964
31.75,17.3535,-13.3001,-4.66165
31.775,17.2611,-12.8663,-4.32862
31.8,17.1627,-12.4348,-4.00067
31.825,17.0583,-12.0057,-3.67791
31.85,16.9479,-11.5792,-3.36042
31.875,16.8316,-11.1555,-3.0483
31.9,16.7094,-10.7348,-2.74164
31.925,16.5816,-10.317,-2.44051
31.95,16.448,-9.90248,-2.14497
31.975,16.3089,-9.49128,-1.85508
32,16.1643,-9.08356,-1.5709
32.025,16.0143,-8.67945,-1.29248
32.05,15.8589,-8.27909,-1.01984
32.075,15.6984,-7.88262,-0.753023
32.1,15.5328,-7.49016,-0.492052
32.125,15.3622,-7.10184,-0.236953
32.15,15.1868,-6.71778,0.0122719
32.175,15.0066,-6.33811,0.255613
32.2,14.8219,-5.96295,0.493072
32.225,14.6326,-5.5924,0.724655
32.25,14.4391,-5.22659,0.950366
32.275,14.2414,-4.86561,1.17023
32.3,14.0397,-4.50957,1.38427
32.325,13.8341,-4.15858,1.5925
32.35,13.6249,-3.81273,1.79497
32.375,13.4121,-3.47211,1.99171
32.4,13.196,-3.1368,2.18275
32.425,12.9767,-2.8069,2.36815
32.45,12.7545,-2.48248,2.54794
32.475,12.5294,-2.16362,2.72218
32.5,12.3017,-1.85039,2.89093
32.525,12.0715,-1.54285,3.05425
32.55,11.8391,-1.24106,3.2122
32.575,11.6047,-0.945079,3.36484
32.6,11.3684,-0.654961,3.51224
32.625,11.1305,-0.37075,3.65446
32.65,10.8911,-0.0924874,3.79159
32.675,10.6505,0.179791,3.92369
32.7,10.4088,0.446052,4.05085
32.725,10.1662,0.706271,4.17314
32.75,9.92292,0.960425,4.29063
32.775,9.6792,1.2085,4.40342
32.8,9.4352,1.45048,4.51158
32.825,9.19111,1.68636,4.6152
32.85,8.94713,1.91614,4.71436
32.875,8.70345,2.13981,4.80915
32.9,8.46025,2.3574,4.89965
32.925,8.21772,2.56891,4.98595
32.95,7.97603,2.77435,5.06814
32.975,7.73537,2.97375,5.14632
33,7.4959,3.16713,5.22055
33.025,7.25779,3.35453,5.29094
33.05,7.02122,3.53598,5.35757
33.075,6.78634,3.71151,5.42053
33.1,6.55331,3.88117,5.47992
33.125,6.32227,4.045,5.53581
33.15,6.09338,4.20306,5.5883
33.175,5.86678,4.35539,5.63747
33.2,5.6426,4.50206,5.68342
33.225,5.42098,4.64312,5.72623
33.25,5.20204,4.77865,5.76598
33.275,4.98589,4.9087,5.80276
33.3,4.77267,5.03335,5.83666
33.325,4.56246,5.15266,5.86776
33.35,4.35538,5.26673,5.89615
33.375,4.15153,5.37561,5.9219
33.4,3.95099,5.4794,5.9451
33.425,3.75385,5.57817,5.96583
33.45,3.56019,5.67202,5.98417
33.475,3.37008,5.76102,6.0002
33.5,3.1836,5.84528,6.014
33.525,3.00081,5.92487,6.02564
33.55,2.82175,5.99989,6.0352
33.575,2.64649,6.07043,6.04275
33.6,2.47507,6.13659,6.04836
33.625,2.30752,6.19847,6.05211
33.65,2.14389,6.25616,6.05408
33.675,1.98421,6.30975,6.05431
33.7,1.82848,6.35936,6.0529
33.725,1.67675,6.40507,6.0499
33.75,1.52901,6.44699,6.04537
33.775,1.38529,6.48522,6.03938
33.8,1.24557,6.51985,6.032
33.825,1.10987,6.55099,6.02329
33.85,0.978175,6.57873,6.01329
33.875,0.850476,6.60319,6.00208
33.9,0.726761,6.62445,5.98971
33.925,0.607012,6.64262,5.97624
33.95,0.491206,6.65779,5.96171
33.975,0.379318,6.67008,5.94619
34,0.271318,6.67956,5.92972
34.025,0.167173,6.68634,5.91236
34.05,0.0668468,6.69052,5.89415
34.075,-0.0297004,6.69219,5.87513
34.1,-0.122512,6.69145,5.85536
34.125,-0.211633,6.68839,5.83488
34.15,-0.297112,6.6831,5.81373
34.175,-0.379,6.67567,5.79196
34.2,-0.457352,6.66619,5.7696
34.225,-0.532222,6.65476,5.74669
34.25,-0.60367,6.64145,5.72327
34.275,-0.671756,6.62636,5.69938
34.3,-0.736541,6.60957,5.67505
34.325,-0.79809,6.59115,5.65031
34.35,-0.856468,6.5712,5.6252
34.375,-0.911743,6.54979,5.59975
34.4,-0.963982,6.527,5.57398
34.425,-1.01325,6.5029,5.54794
34.45,-1.05963,6.47757,5.52164
34.475,-1.10318,6.45107,5.49511
34.5,-1.14398,6.4235,5.46837
34.525,-1.18211,6.3949,5.44145
34.55,-1.21762,6.36534,5.41438
34.575,-1.2506,6.3349,5.38716
34.6,-1.28113,6.30364,5.35984
34.625,-1.30927,6.27161,5.33242
34.65,-1.33511,6.23888,5.30491
34.675,-1.3587,6.2055,5.27736
34.7,-1.38014,6.17153,5.24976
34.725,-1.39949,6.13703,5.22214
34.75,-1.41683,6.10204,5.1945
34.775,-1.43223,6.06662,5.16687
34.8,-1.44577,6.03081,5.13925
34.825,-1.45751,5.99467,5.11166
34.85,-1.46753,5.95823,5.08411
34.875,-1.4759,5.92154,5.05661
34.9,-1.48268,5.88465,5.02918
34.925,-1.48796,5.84758,5.00181
34.95,-1.49179,5.81038,4.97452
34.975,-1.49424,5.77309,4.94732
35,-1.49539,5.73573,4.92022
35.025,-1.49529,5.69835,4.89321
35.05,-1.49401,5.66096,4.86632
35.075,-1.49161,5.62361,4.83953
35.1,-1.48815,5.58632,4.81287
35.125,-1.4837,5.54912,4.78633
35.15,-1.47832,5.51203,4.75991
35.175,-1.47205,5.47507,4.73363
35.2,-1.46496,5.43827,4.70748
35.225,-1.4571,5.40164,4.68146
35.25,-1.44853,5.36522,4.65558
35.275,-1.43929,5.329,4.62985
35.3,-1.42945,5.29302,4.60425
35.325,-1.41904,5.25728,4.5788
35.35,-1.40811,5.22181,4.5535
35.375,-1.39671,5.18661,4.52834
35.4,-1.38489,5.15169,4.50332
35.425,-1.37268,5.11707,4.47846
35.45,-1.36014,5.08275,4.45373
35.475,-1.34729,5.04874,4.42915
35.5,-1.33418,5.01506,4.40472
35.525,-1.32084,4.98171,4.38043
35.55,-1.30732,4.94869,4.35628
35.575,-1.29363,4.916,4.33228
35.6,-1.27982,4.88366,4.30841
35.625,-1.26592,4.85167,4.28469
35.65,-1.25195,4.82002,4.2611
35.675,-1.23795,4.78872,4.23765
35.7,-1.22394,4.75777,4.21434
35.725,-1.20994,4.72717,4.19116
35.75,-1.19598,4.69693,4.16811
35.775,-1.18208,4.66703,4.14519
35.8,-1.16827,4.63747,4.1224
35.825,-1.15455,4.60827,4.09974
35.85,-1.14096,4.5794,4.0772
35.875,-1.12751,4.55088,4.05479
35.9,-1.11421,4.52269,4.03249
35.925,-1.10107,4.49484,4.01032
35.95,-1.08812,4.46731,3.98826
35.975,-1.07537,4.44011,3.96632
36,-1.06282,4.41322,3.94449
36.025,-1.05048,4.38665,3.92278
36.05,-1.03837,4.36039,3.90118
36.075,-1.0265,4.33443,3.87969
36.1,-1.01486,4.30877,3.8583
36.125,-1.00347,4.2834,3.83702
36.15,-0.992333,4.25831,3.81585
36.175,-0.981451,4.2335,3.79479
36.2,-0.970829,4.20897,3.77382
36.225,-0.96047,4.18469,3.75296
36.25,-0.950374,4.16068,3.7322
36.275,-0.940543,4.13692,3.71153
36.3,-0.930979,4.11341,3.69097
36.325,-0.921679,4.09014,3.67051
36.35,-0.912645,4.06709,3.65014
36.375,-0.903873,4.04428,3.62987
36.4,-0.895363,4.02168,3.60969
36.425,-0.88711,3.9993,3.58961
36.45,-0.879113,3.97712,3.56963
36.475,-0.871367,3.95514,3.54974
36.5,-0.863869,3.93336,3.52995
36.525,-0.856613,3.91176,3.51025
36.55,-0.849595,3.89034,3.49064
36.575,-0.842809,3.8691,3.47114
36.6,-0.836249,3.84803,3.45172
36.625,-0.82991,3.82713,3.43241
36.65,-0.823785,3.80638,3.41318
36.675,-0.817867,3.78579,3.39405
36.7,-0.81215,3.76534,3.37502
36.725,-0.806628,3.74504,3.35609
36.75,-0.801291,3.72487,3.33725
36.775,-0.796134,3.70484,3.31851
36.8,-0.791148,3.68493,3.29987
36.825,-0.786327,3.66516,3.28133
36.85,-0.781662,3.6455,3.26289
36.875,-0.777145,3.62596,3.24455
36.9,-0.772769,3.60653,3.22631
36.925,-0.768526,3.58721,3.20818
36.95,-0.764407,3.56799,3.19015
36.975,-0.760406,3.54888,3.17222
37,-0.756515,3.52987,3.1544
37.025,-0.752725,3.51096,3.13669
37.05,-0.749028,3.49214,3.11909
37.075,-0.745417,3.47342,3.10159
37.1,-0.741885,3.45478,3.08421
37.125,-0.738424,3.43624,3.06694
37.15,-0.735026,3.41777,3.04979
37.175,-0.731685,3.3994,3.03274
37.2,-0.728392,3.38111,3.01582
37.225,-0.725143,3.3629,2.99901
37.25,-0.721928,3.34477,2.98232
37.275,-0.718743,3.32672,2.96575
37.3,-0.715579,3.30875,2.9493
37.325,-0.712432,3.29086,2.93297
37.35,-0.709295,3.27305,2.91677
37.375,-0.706161,3.25532,2.9007
37.4,-0.703026,3.23766,2.88474
37.425,-0.699884,3.22009,2.86892
37.45,-0.69673,3.20259,2.85322
37.475,-0.693559,3.18517,2.83766
37.5,-0.690365,3.16783,2.82223
37.525,-0.687144,3.15058,2.80693
37.55,-0.683892,3.1334,2.79176
37.575,-0.680605,3.1163,2.77673
37.6,-0.677278,3.09928,2.76183
37.625,-0.673908,3.08235,2.74707
37.65,-0.670493,3.06551,2.73245
37.675,-0.667027,3.04874,2.71797
37.7,-0.663508,3.03207,2.70363
37.725,-0.659934,3.01548,2.68943
37.75,-0.656303,2.99898,2.67537
37.775,-0.65261,2.98257,2.66145
37.8,-0.648855,2.96626,2.64768
37.825,-0.645036,2.95004,2.63405
37.85,-0.641151,2.93391,2.62057
37.875,-0.637198,2.91788,2.60723
37.9,-0.633177,2.90195,2.59403
37.925,-0.629086,2.88612,2.58099
37.95,-0.624924,2.8704,2.56809
37.975,-0.620691,2.85477,2.55534
38,-0.616387,2.83926,2.54274
38.025,-0.61201,2.82385,2.53028
38.05,-0.607561,2.80855,2.51798
38.075,-0.603041,2.79336,2.50582
38.1,-0.598449,2.77828,2.49382
38.125,-0.593785,2.76332,2.48196
38.15,-0.589052,2.74847,2.47025
38.175,-0.584248,2.73375,2.45869
38.2,-0.579375,2.71914,2.44729
38.225,-0.574435,2.70466,2.43603
38.25,-0.569428,2.6903,2.42492
38.275,-0.564355,2.67606,2.41396
38.3,-0.559219,2.66195,2.40315
38.325,-0.554021,2.64797,2.39248
38.35,-0.548762,2.63412,2.38197
38.375,-0.543444,2.6204,2.37161
38.4,-0.53807,2.60682,2.36139
38.425,-0.532641,2.59336,2.35132
38.45,-0.527159,2.58005,2.34139
38.475,-0.521626,2.56687,2.33162
38.5,-0.516045,2.55383,2.32198
38.525,-0.510418,2.54093,2.3125
38.55,-0.504747,2.52817,2.30316
38.575,-0.499036,2.51555,2.29396
38.6,-0.493285,2.50307,2.2849
38.625,-0.487498,2.49074,2.27599
38.65,-0.481678,2.47855,2.26722
38.675,-0.475827,2.46651,2.25859
38.7,-0.469948,2.45462,2.25009
38.725,-0.464043,2.44287,2.24174
38.75,-0.458116,2.43127,2.23352
38.775,-0.452168,2.41981,2.22544
38.8,-0.446203,2.40851,2.2175
38.825,-0.440223,2.39735,2.20969
38.85,-0.434232,2.38635,2.20201
38.875,-0.428231,2.37549,2.19447
38.9,-0.422223,2.36479,2.18705
38.925,-0.416212,2.35423,2.17977
38.95,-0.4102,2.34383,2.17261
38.975,-0.404189,2.33357,2.16558
39,-0.398183,2.32347,2.15868
39.025,-0.392184,2.31351,2.1519
39.05,-0.386194,2.30371,2.14524
39.075,-0.380216,2.29405,2.13871
39.1,-0.374253,2.28455,2.1323
39.125,-0.368308,2.27519,2.126
39.15,-0.362381,2.26598,2.11983
39.175,-0.356477,2.25692,2.11377
39.2,-0.350597,2.24801,2.10783
39.225,-0.344744,2.23925,2.10199
39.25,-0.338919,2.23063,2.09628
39.275,-0.333125,2.22215,2.09067
39.3,-0.327365,2.21383,2.08517
39.325,-0.321639,2.20564,2.07978
39.35,-0.315951,2.1976,2.0745
39.375,-0.310302,2.1897,2.06932
39.4,-0.304694,2.18194,2.06424
39.425,-0.299129,2.17433,2.05927
39.45,-0.293608,2.16685,2.0544
39.475,-0.288134,2.15951,2.04962
39.5,-0.282708,2.15231,2.04495
39.525,-0.277331,2.14524,2.04037
39.55,-0.272005,2.1383,2.03588
39.575,-0.266731,2.1315,2.03149
39.6,-0.261511,2.12484,2.02719
39.625,-0.256346,2.1183,2.02298
39.65,-0.251238,2.11189,2.01886
39.675,-0.246186,2.10561,2.01483
39.7,-0.241193,2.09945,2.01088
39.725,-0.23626,2.09342,2.00701
39.75,-0.231386,2.08752,2.00323
39.775,-0.226573,2.08173,1.99954
39.8,-0.221823,2.07607,1.99592
39.825,-0.217134,2.07052,1.99239
39.85,-0.212509,2.06509,1.98893
39.875,-0.207948,2.05978,1.98554
39.9,-0.203452,2.05458,1.98223
39.925,-0.19902,2.0495,1.97899
39.95,-0.194654,2.04452,1.97583
39.975,-0.190353,2.03966,1.97274
40,-0.186117,2.0349,1.96972
40.025,-0.181948,2.03024,1.96677
40.05,-0.177845,2.02569,1.96388
40.075,-0.173808,2.02125,1.96106
40.1,-0.169837,2.0169,1.95831
40.125,-0.165933,2.01266,1.95561
40.15,-0.162095,2.00851,1.95298
40.175,-0.158323,2.00446,1.95041
40.2,-0.154618,2.0005,1.94791
40.225,-0.150977,1.99663,1.94546
40.25,-0.147403,1.99286,1.94307
40.275,-0.143893,1.98917,1.94073
40.3,-0.140449,1.98558,1.93845
40.325,-0.137068,1.98207,1.93623
40.35,-0.133752,1.97864,1.93406
40.375,-0.1305,1.97529,1.93194
40.4,-0.12731,1.97203,1.92988
40.425,-0.124182,1.96885,1.92786
40.45,-0.121117,1.96574,1.9259
40.475,-0.118113,1.96272,1.92398
40.5,-0.115169,1.95976,1.92211
40.525,-0.112286,1.95688,1.92029
40.55,-0.109461,1.95408,1.91851
40.575,-0.106696,1.95134,1.91678
40.6,-0.103988,1.94867,1.91509
40.625,-0.101337,1.94607,1.91345
40.65,-0.0987431,1.94354,1.91184
40.675,-0.0962044,1.94107,1.91028
40.7,-0.0937203,1.93867,1.90876
40.725,-0.0912898,1.93632,1.90728
40.75,-0.0889125,1.93404,1.90584
40.775,-0.086587,1.93182,1.90444
40.8,-0.0843134,1.92965,1.90307
40.825,-0.08209,1.92755,1.90175
40.85,-0.0799157,1.92549,1.90046
40.875,-0.0777903,1.9235,1.8992
40.9,-0.0757125,1.92155,1.89798
40.925,-0.073681,1.91966,1.8968
40.95,-0.0716954,1.91782,1.89565
40.975,-0.0697548,1.91602,1.89453
41,-0.0678582,1.91428,1.89344
41.025,-0.0660049,1.91258,1.89238
41.05,-0.0641939,1.91093,1.89136
41.075,-0.062424,1.90933,1.89037
41.1,-0.0606945,1.90777,1.8894
41.125,-0.0590044,1.90625,1.88847
41.15,-0.0573532,1.90478,1.88756
41.175,-0.0557393,1.90334,1.88669
41.2,-0.0541621,1.90195,1.88584
41.225,-0.0526204,1.90059,1.88502
41.25,-0.0511138,1.89928,1.88423
41.275,-0.0496415,1.898,1.88346
41.3,-0.0482022,1.89676,1.88272
41.325,-0.0467952,1.89556,1.88201
41.35,-0.0454203,1.89439,1.88131
41.375,-0.044076,1.89325,1.88065
41.4,-0.0427616,1.89215,1.88
41.425,-0.0414763,1.89108,1.87939
41.45,-0.0402192,1.89004,1.87879
41.475,-0.0389896,1.88904,1.87822
41.5,-0.0377866,1.88806,1.87768
41.525,-0.03661,1.88712,1.87715
41.55,-0.0354587,1.8862,1.87664
41.575,-0.0343322,1.88532,1.87616
41.6,-0.0332295,1.88446,1.8757
41.625,-0.03215,1.88363,1.87525
41.65,-0.0310931,1.88282,1.87483
41.675,-0.0300581,1.88205,1.87443
41.7,-0.0290447,1.88129,1.87405
41.725,-0.0280515,1.88057,1.87369
41.75,-0.0270791,1.87987,1.87334
41.775,-0.0261257,1.87919,1.87302
41.8,-0.0251916,1.87854,1.87271
41.825,-0.0242759,1.87791,1.87242
41.85,-0.0233777,1.8773,1.87215
41.875,-0.022497,1.87672,1.8719
41.9,-0.0216333,1.87615,1.87166
41.925,-0.0207858,1.87561,1.87144
41.95,-0.0199541,1.87509,1.87124
41.975,-0.0191382,1.87459,1.87105
42,-0.0183375,1.87411,1.87087
42.025,-0.0175514,1.87366,1.87072
42.05,-0.0167794,1.87322,1.87058
42.075,-0.0160212,1.8728,1.87045
42.1,-0.0152766,1.8724,1.87034
42.125,-0.0145446,1.87202,1.87025
42.15,-0.0138255,1.87165,1.87017
42.175,-0.0131189,1.87131,1.8701
42.2,-0.0124242,1.87098,1.87005
42.225,-0.0117416,1.87067,1.87
42.25,-0.0110707,1.87037,1.86997
42.275,-0.0104107,1.8701,1.86996
42.3,-0.00976164,1.86984,1.86996
42.325,-0.00912306,1.86959,1.86997
42.35,-0.00849535,1.86937,1.86999
42.375,-0.00787757,1.86915,1.87003
42.4,-0.00726977,1.86896,1.87008
42.425,-0.00667213,1.86877,1.87014
42.45,-0.00608402,1.86861,1.87021
42.475,-0.00550529,1.86846,1.87029
42.5,-0.00493616,1.86832,1.87038
42.525,-0.00437618,1.86819,1.87048
42.55,-0.0038252,1.86808,1.87059
42.575,-0.00328276,1.86799,1.87072
42.6,-0.00274892,1.86791,1.87085
42.625,-0.00222384,1.86784,1.871
42.65,-0.00170697,1.86778,1.87115
