timestamp,TimeUS,DesRoll,Roll,DesPitch,Pitch,DesYaw,Yaw,ErrRP,ErrYaw
1590499223.29920721,47513487,-25.0,0.07,0.0,0.06,0.0,0.38,0.0,0.0
1590499223.34002399,47554304,0.0,0.07,3.99,0.06,0.0,0.38,0.0,0.0
1590499223.38000822,47594288,0.0,0.07,3.99,0.06,0.0,0.38,0.0,0.0
1590499223.41999221,47634272,0.0,0.07,3.99,0.06,0.0,0.38,0.0,0.0
1590499223.45997620,47674256,0.0,0.07,3.99,0.06,0.0,0.38,0.0,0.0
1590499223.49996018,47714240,0.0,0.07,3.99,0.06,0.0,0.38,0.0,0.0
1590499223.53994417,47754224,0.0,0.07,3.99,0.06,0.0,0.38,0.0,0.0
1590499223.57992816,47794208,0.0,0.07,3.99,0.06,0.0,0.38,0.0,0.0
1590499223.61991215,47834192,0.0,0.07,3.99,0.06,0.0,0.38,0.0,0.0
1590499223.65989614,47874176,0.0,0.07,3.99,0.06,0.0,0.38,0.0,0.0
1590499223.69988012,47914160,0.0,0.07,3.99,0.06,0.0,0.38,0.0,0.0
1590499223.73986411,47954144,0.0,0.07,3.99,0.06,0.0,0.38,0.0,0.0
1590499223.77984810,47994128,0.0,0.07,3.99,0.06,0.0,0.38,0.0,0.0
1590499223.81983209,48034112,0.0,0.07,3.99,0.06,0.0,0.38,0.0,0.0
1590499223.85981607,48074096,0.0,0.07,3.99,0.06,0.0,0.38,0.0,0.0
1590499223.89980006,48114080,0.0,0.07,3.99,0.06,0.0,0.38,0.0,0.0
1590499223.93978405,48154064,0.0,0.07,3.99,0.06,0.0,0.38,0.0,0.0
1590499223.97976804,48194048,0.0,0.07,3.99,0.06,0.0,0.39,0.0,0.0
1590499224.01975203,48234032,0.0,0.07,3.99,0.06,0.0,0.39,0.0,0.0
1590499224.05973601,48274016,0.0,0.07,3.99,0.06,0.0,0.39,0.0,0.0
1590499224.09972000,48314000,0.0,0.07,3.99,0.06,0.0,0.39,0.0,0.0
1590499224.13970423,48353984,0.0,0.07,3.99,0.06,0.0,0.39,0.0,0.0
1590499224.17968822,48393968,0.0,0.07,3.99,0.06,0.0,0.39,0.0,0.0
1590499224.21967220,48433952,0.0,0.07,3.99,0.06,0.0,0.39,0.0,0.0
1590499224.25965619,48473936,0.0,0.07,3.99,0.06,0.0,0.39,0.0,0.0
1590499224.29964018,48513920,0.0,0.07,3.99,0.07,0.0,0.39,0.0,0.0
1590499224.33962417,48553904,0.0,0.07,3.99,0.07,0.0,0.39,0.0,0.0
1590499224.37960815,48593888,0.0,0.07,3.99,0.07,0.0,0.39,0.0,0.0
1590499224.41959214,48633872,0.0,0.07,3.99,0.08,0.0,0.39,0.01,0.0
1590499224.45957613,48673856,0.0,0.07,3.99,0.08,0.0,0.39,0.01,0.0
1590499224.49956012,48713840,0.0,0.07,3.99,0.09,0.0,0.39,0.01,0.0
1590499224.53954411,48753824,0.0,0.07,3.99,0.09,0.0,0.38,0.01,0.0
1590499224.57952809,48793808,0.0,0.07,3.99,0.1,0.0,0.38,0.01,0.0
1590499224.61951208,48833792,0.0,0.07,3.99,0.11,0.0,0.38,0.01,0.0
1590499224.65949607,48873776,0.0,0.07,3.99,0.11,0.0,0.38,0.01,0.0
1590499224.69948006,48913760,0.0,0.07,3.99,0.12,0.0,0.38,0.01,0.0
1590499224.73946404,48953744,0.0,0.07,3.99,0.14,0.0,0.37,0.01,0.0
1590499224.77944803,48993728,0.0,0.07,3.99,0.15,0.0,0.37,0.01,0.0
1590499224.81943202,49033712,0.0,0.07,3.99,0.16,0.0,0.36,0.01,0.0
1590499224.85941601,49073696,0.0,0.07,3.99,0.17,0.0,0.36,0.01,0.0
1590499224.89940000,49113680,0.0,0.07,3.99,0.18,0.0,0.35000000000000003,0.01,0.0
1590499224.93938422,49153664,0.0,0.07,3.99,0.19,0.0,0.35000000000000003,0.01,0.0
1590499224.97936821,49193648,0.0,0.07,3.99,0.21,0.0,0.34,0.01,0.0
1590499225.01935220,49233632,0.0,0.07,3.99,0.22,0.0,0.33,0.01,0.0
1590499225.05933619,49273616,0.0,0.07,3.99,0.23,0.0,0.32,0.01,0.0
1590499225.09932017,49313600,0.0,0.07,3.99,0.25,0.0,0.31,0.01,0.0
1590499225.13930416,49353584,0.0,0.07,3.99,0.26,0.0,0.3,0.01,0.0
1590499225.17928815,49393568,0.0,0.07,3.99,0.28,0.0,0.29,0.01,0.0
1590499225.21927214,49433552,0.0,0.07,3.99,0.29,0.0,0.27,0.01,0.0
1590499225.25925612,49473536,0.0,0.07,3.99,0.3,0.0,0.26,0.01,0.0
1590499225.29924011,49513520,0.0,0.07,3.99,0.32,0.0,0.25,0.01,0.0
1590499225.33922410,49553504,0.0,0.07,3.99,0.33,0.0,0.24,0.01,0.0
1590499225.37920809,49593488,0.0,0.07,3.99,0.34,0.0,0.22,0.01,0.0
1590499225.42002511,49634305,0.0,0.07,3.99,0.36,0.0,0.21,0.01,0.0
1590499225.46000910,49674289,0.0,0.07,3.99,0.37,0.0,0.2,0.01,0.0
1590499225.49999309,49714273,0.0,0.07,3.99,0.38,0.0,0.19,0.01,0.0
1590499225.53997707,49754257,0.0,0.07,3.99,0.39,0.0,0.17,0.01,0.0
1590499225.57996106,49794241,0.0,0.07,3.99,0.4,0.0,0.16,0.01,0.0
1590499225.61994505,49834225,0.0,0.07,3.99,0.4,0.0,0.15,0.01,0.0
1590499225.65992904,49874209,0.0,0.07,3.99,0.41000000000000003,0.0,0.14,0.01,0.0
1590499225.69991302,49914193,0.0,0.07,3.99,0.42,0.0,0.13,0.01,0.0
1590499225.73989701,49954177,0.0,0.07,3.99,0.42,0.0,0.12,0.01,0.0
1590499225.77988100,49994161,0.0,0.07,3.99,0.43,0.0,0.11,0.01,0.0
1590499225.81986523,50034145,0.0,0.07,4.47,0.43,0.0,0.1,0.01,0.0
1590499225.85984921,50074129,0.0,0.07,4.47,0.44,0.0,0.09,0.01,0.0
1590499225.89983320,50114113,0.0,0.07,4.47,0.44,0.0,0.08,0.01,0.0
1590499225.93981719,50154097,0.0,0.07,5.93,0.45,0.0,0.07,0.01,0.0
1590499225.97980118,50194081,0.0,0.07,5.93,0.45,0.0,0.07,0.01,0.0
1590499226.01978517,50234065,0.0,0.07,7.0200000000000005,0.45,0.0,0.06,0.01,0.0
1590499226.05976915,50274049,0.0,0.07,7.0200000000000005,0.46,0.0,0.06,0.01,0.0
1590499226.09975314,50314033,0.0,0.07,7.0200000000000005,0.46,0.0,0.05,0.01,0.0
1590499226.13973713,50354017,0.0,0.07,7.87,0.46,0.0,0.04,0.01,0.0
1590499226.17972112,50394001,0.0,0.07,7.87,0.46,0.0,0.04,0.01,0.0
1590499226.21970510,50433985,0.0,0.07,8.41,0.47000000000000003,0.0,0.03,0.01,0.0
1590499226.25968909,50473969,0.0,0.07,8.41,0.47000000000000003,0.0,0.03,0.01,0.0
1590499226.29967308,50513953,0.0,0.07,8.41,0.47000000000000003,0.0,0.03,0.01,0.0
1590499226.33965707,50553937,0.0,0.07,8.78,0.47000000000000003,0.0,0.02,0.01,0.0
1590499226.37964106,50593921,0.0,0.07,8.78,0.48,0.0,0.02,0.01,0.0
1590499226.41962504,50633905,0.0,0.07,9.09,0.48,0.0,0.02,0.01,0.0
1590499226.45960903,50673889,0.0,0.08,9.09,0.48,0.0,0.02,0.01,0.0
1590499226.49959302,50713873,0.0,0.08,9.09,0.48,0.0,0.01,0.01,0.0
1590499226.53957701,50753857,0.0,0.08,9.55,0.48,0.0,0.01,0.01,0.0
1590499226.57956100,50793841,0.0,0.08,9.55,0.48,0.0,0.01,0.01,0.0
1590499226.61954522,50833825,0.0,0.08,10.02,0.48,0.0,0.01,0.01,0.0
1590499226.65952921,50873809,0.0,0.08,10.02,0.48,0.0,0.01,0.01,0.0
1590499226.69951320,50913793,0.0,0.08,10.02,0.48,0.0,0.0,0.01,0.0
1590499226.73949718,50953777,0.0,0.08,10.48,0.48,0.0,0.0,0.01,0.0
1590499226.77948117,50993761,0.0,0.08,10.48,0.48,0.0,0.0,0.01,0.0
1590499226.81946516,51033745,0.0,0.08,10.97,0.48,0.0,0.0,0.01,0.0
1590499226.85944915,51073729,0.0,0.08,10.97,0.48,0.0,0.0,0.01,0.0
1590499226.89943314,51113713,0.0,0.08,10.97,0.48,0.0,0.0,0.01,0.0
1590499226.93941712,51153697,0.0,0.08,11.450000000000001,0.47000000000000003,0.0,0.0,0.01,0.0
1590499226.97940111,51193681,0.0,0.08,11.450000000000001,0.47000000000000003,0.0,0.0,0.01,0.0
1590499227.01938510,51233665,-0.05,0.08,11.74,0.47000000000000003,0.0,0.0,0.01,0.0
1590499227.05936909,51273649,-0.05,0.08,11.74,0.47000000000000003,0.0,0.0,0.01,0.0
1590499227.09935308,51313633,-0.05,0.09,11.74,0.47000000000000003,0.0,0.0,0.01,0.0
1590499227.13933706,51353617,-0.05,0.09,11.9,0.46,0.0,0.0,0.01,0.0
1590499227.17932105,51393601,-0.05,0.09,11.9,0.46,0.0,0.0,0.01,0.0
1590499227.21930504,51433585,-0.05,0.09,12.040000000000001,0.46,0.0,0.0,0.0,0.0
1590499227.25928903,51473569,-0.05,0.09,12.040000000000001,0.46,0.0,0.0,0.0,0.0
1590499227.29927301,51513553,-0.05,0.09,12.040000000000001,0.47000000000000003,0.0,0.0,0.0,0.0
1590499227.33925700,51553537,-0.05,0.09,12.21,0.46,0.0,0.0,0.0,0.0
1590499227.37924123,51593521,-0.05,0.09,12.21,0.46,0.0,0.0,0.0,0.0
1590499227.41922522,51633505,-0.05,0.09,12.42,0.47000000000000003,0.0,0.0,0.0,0.0
1590499227.45920920,51673489,-0.05,0.09,12.42,0.47000000000000003,0.0,0.0,0.0,0.0
1590499227.49919319,51713473,-0.05,0.09,12.42,0.47000000000000003,0.0,0.0,0.0,0.0
1590499227.54001021,51754290,-0.05,0.09,12.530000000000001,0.47000000000000003,0.0,0.0,0.0,0.0
1590499227.57999420,51794274,-0.05,0.09,12.530000000000001,0.47000000000000003,0.0,0.0,0.0,0.0
1590499227.61997819,51834258,-0.05,0.09,12.65,0.48,0.0,0.0,0.0,0.0
1590499227.65996218,51874242,-0.05,0.09,12.65,0.48,0.0,0.0,0.0,0.0
1590499227.69994617,51914226,-0.05,0.09,12.65,0.49,0.0,0.0,0.0,0.0
1590499227.73993015,51954210,-0.05,0.09,12.66,0.49,0.0,0.0,0.0,0.0
1590499227.77991414,51994194,-0.05,0.09,12.66,0.49,0.0,0.0,0.0,0.0
1590499227.81989813,52034178,-0.05,0.09,12.67,0.5,0.0,0.0,0.0,0.0
1590499227.85988212,52074162,-0.05,0.09,12.67,0.5,0.0,0.0,0.0,0.0
1590499227.89986610,52114146,-0.05,0.09,12.67,0.51,0.0,0.0,0.0,0.0
1590499227.93985009,52154130,-0.05,0.09,12.67,0.51,0.0,0.0,0.0,0.0
1590499227.97983408,52194114,-0.05,0.09,12.67,0.52,0.0,0.0,0.0,0.0
1590499228.01981807,52234098,-0.05,0.09,12.700000000000001,0.53,0.0,0.0,0.0,0.0
1590499228.05980206,52274082,-0.05,0.09,12.700000000000001,0.53,0.0,0.0,0.0,0.0
1590499228.09978604,52314066,-0.05,0.09,12.700000000000001,0.54,0.0,0.0,0.0,0.0
1590499228.13977003,52354050,-0.05,0.09,12.82,0.55,0.0,0.0,0.0,0.0
1590499228.17975402,52394034,-0.05,0.09,12.82,0.55,0.0,0.0,0.0,0.0
1590499228.21973801,52434018,-0.05,0.09,12.96,0.56,0.0,0.0,0.0,0.0
1590499228.25972199,52474002,-0.05,0.09,12.96,0.5700000000000001,0.0,0.0,0.0,0.0
1590499228.29970622,52513986,-0.05,0.09,12.96,0.58,0.0,0.0,0.0,0.0
1590499228.33969021,52553970,-0.05,0.09,13.09,0.59,0.0,0.0,0.0,0.0
1590499228.37967420,52593954,-0.05,0.09,13.09,0.6,0.0,0.0,0.0,0.0
1590499228.41965818,52633938,-0.05,0.09,13.18,0.61,0.0,0.0,0.0,0.0
1590499228.45964217,52673922,-0.05,0.09,13.18,0.61,0.0,0.0,0.0,0.0
1590499228.49962616,52713906,-0.05,0.09,13.18,0.62,0.0,0.0,0.0,0.0
1590499228.53961015,52753890,-0.05,0.09,13.3,0.63,0.0,0.0,0.0,0.0
1590499228.57959414,52793874,-0.05,0.09,13.3,0.64,0.0,0.0,0.0,0.0
1590499228.61957812,52833858,-0.05,0.09,13.31,0.65,0.0,0.0,0.0,0.0
1590499228.65956211,52873842,-0.05,0.09,13.31,0.66,0.0,0.0,0.0,0.0
1590499228.69954610,52913826,-0.05,0.09,13.31,0.67,0.0,0.0,0.0,0.0
1590499228.73953009,52953810,-0.05,0.09,13.33,0.68,0.0,0.01,0.0,0.0
1590499228.77951407,52993794,-0.05,0.09,13.33,0.6900000000000001,0.0,0.01,0.0,0.0
1590499228.81949806,53033778,-0.06,0.09,13.290000000000001,0.71,0.0,0.01,0.0,0.0
1590499228.85948205,53073762,-0.06,0.09,13.290000000000001,0.72,0.0,0.01,0.0,0.0
1590499228.89946604,53113746,-0.06,0.09,13.290000000000001,0.73,0.0,0.01,0.0,0.0
1590499228.93945003,53153730,-0.06,0.09,13.22,0.74,0.0,0.01,0.0,0.0
1590499228.97943401,53193714,-0.06,0.09,13.22,0.75,0.0,0.02,0.0,0.0
1590499229.01941800,53233698,-0.07,0.09,13.27,0.77,0.0,0.02,0.0,0.0
1590499229.05940223,53273682,-0.07,0.09,13.27,0.78,0.0,0.02,0.0,0.0
1590499229.09938622,53313666,-0.07,0.09,13.27,0.79,0.0,0.02,0.0,0.0
1590499229.13937020,53353650,-0.07,0.09,13.36,0.81,0.0,0.02,0.0,0.0
1590499229.17935419,53393634,-0.07,0.09,13.36,0.8200000000000001,0.0,0.02,0.0,0.0
1590499229.21933818,53433618,-0.07,0.09,13.36,0.84,0.0,0.03,0.0,0.0
1590499229.25932217,53473602,-0.07,0.09,13.36,0.85,0.0,0.03,0.0,0.0
1590499229.29930615,53513586,-0.07,0.08,13.36,0.87,0.0,0.03,0.0,0.0
1590499229.33929014,53553570,-0.08,0.08,13.5,0.88,0.0,0.03,0.0,0.0
1590499229.37927413,53593554,-0.08,0.08,13.5,0.9,0.0,0.03,0.0,0.0
1590499229.41925812,53633538,-0.08,0.08,13.58,0.92,0.0,0.03,0.0,0.0
1590499229.45924211,53673522,-0.08,0.08,13.58,0.93,0.0,0.04,0.0,0.0
1590499229.49922609,53713506,-0.08,0.08,13.58,0.9500000000000001,0.0,0.04,0.0,0.0
1590499229.53921008,53753490,-0.09,0.08,13.72,0.97,0.0,0.04,0.0,0.0
1590499229.57919407,53793474,-0.09,0.08,13.72,0.98,0.0,0.04,0.0,0.0
1590499229.62001109,53834291,-0.09,0.08,13.91,1.0,0.0,0.04,0.0,0.0
1590499229.65999508,53874275,-0.09,0.08,13.91,1.02,0.0,0.05,0.0,0.0
1590499229.69997907,53914259,-0.09,0.08,13.91,1.03,0.0,0.05,0.0,0.0
1590499229.73996305,53954243,-0.1,0.08,14.02,1.05,0.0,0.05,0.0,0.0
1590499229.77994704,53994227,-0.1,0.08,14.02,1.07,0.0,0.05,0.0,0.0
1590499229.81993103,54034211,-0.1,0.08,14.05,1.09,0.0,0.05,0.0,0.0
1590499229.85991502,54074195,-0.1,0.08,14.05,1.1,0.0,0.05,0.0,0.0
1590499229.89989901,54114179,-0.1,0.08,14.05,1.12,0.0,0.06,0.0,0.0
1590499229.93988299,54154163,-0.11,0.08,14.1,1.1400000000000001,0.0,0.06,0.0,0.0
1590499229.97986722,54194147,-0.11,0.08,14.1,1.16,0.0,0.06,0.0,0.0
1590499230.01985121,54234131,-0.11,0.08,14.120000000000001,1.18,0.0,0.06,0.0,0.0
1590499230.05983520,54274115,-0.11,0.08,14.120000000000001,1.19,0.0,0.06,0.0,0.0
1590499230.09981918,54314099,-0.11,0.08,14.120000000000001,1.21,0.0,0.07,0.0,0.0
1590499230.13980317,54354083,-0.12,0.08,14.16,1.23,0.0,0.07,0.0,0.0
1590499230.17978716,54394067,-0.12,0.08,14.16,1.25,0.0,0.07,0.0,0.0
1590499230.21977115,54434051,-0.12,0.08,14.200000000000001,1.27,0.0,0.07,0.0,0.0
1590499230.25975513,54474035,-0.12,0.08,14.200000000000001,1.29,0.0,0.07,0.0,0.0
1590499230.29973912,54514019,-0.12,0.08,14.200000000000001,1.31,0.0,0.07,0.0,0.0
1590499230.33972311,54554003,-0.12,0.08,14.3,1.33,0.0,0.08,0.0,0.0
1590499230.37970710,54593987,-0.12,0.07,14.3,1.45,0.0,0.08,0.0,0.0
1590499230.41969109,54633971,-0.13,0.09,14.74,2.32,0.0,0.09,0.0,0.0
1590499230.45967507,54673955,-0.13,0.11,14.74,3.98,0.0,0.1,0.0,0.0
1590499230.49965906,54713939,-0.13,0.14,14.74,6.18,0.0,0.09,0.0,0.0
1590499230.53964305,54753923,-0.14,0.15,14.99,8.700000000000001,0.0,0.08,0.0,0.0
1590499230.57962704,54793907,-0.14,0.15,14.99,11.33,0.0,0.08,0.0,0.0
1590499230.61961102,54833891,-0.13,0.11,14.99,13.98,0.0,0.09,0.0,0.0
1590499230.65959501,54873875,-0.13,0.05,14.99,16.52,0.0,0.1,0.0,0.0
1590499230.69957900,54913859,-0.13,-0.01,14.99,18.89,0.0,0.11,0.0,0.0
1590499230.73956323,54953843,-0.15,-0.08,14.99,21.06,0.0,0.11,0.0,0.0
1590499230.77954721,54993827,-0.14,-0.16,14.99,22.97,0.0,0.1,0.0,0.0
1590499230.81953120,55033811,-0.13,-0.22,14.99,24.67,0.0,0.09,0.01,0.0
1590499230.85951519,55073795,-0.13,-0.28,14.99,26.12,0.0,0.07,0.01,0.0
1590499230.89949918,55113779,-0.12,-0.34,14.99,27.34,0.0,0.04,0.01,0.0
1590499230.93948317,55153763,-0.07,-0.41000000000000003,14.99,28.310000000000002,0.0,0.02,0.01,0.0
1590499230.97946715,55193747,-0.07,-0.46,14.99,29.09,0.0,0.01,0.01,0.0
1590499231.01945114,55233731,-0.04,-0.51,14.99,29.68,0.0,0.0,0.01,0.0
1590499231.05943513,55273715,-0.04,-0.5,14.99,30.11,0.0,0.0,0.01,0.0
1590499231.09941912,55313699,-0.04,-0.47000000000000003,14.99,30.41,0.0,0.0,0.01,0.0
1590499231.13940310,55353683,-0.04,-0.44,14.99,30.61,0.0,0.01,0.01,0.0
1590499231.17938709,55393667,-0.04,-0.41000000000000003,14.99,30.72,0.0,0.0,0.01,0.0
1590499231.21937108,55433651,-0.03,-0.4,14.99,30.77,0.0,359.97,0.01,0.0
1590499231.25935507,55473635,-0.03,-0.41000000000000003,14.99,30.75,0.0,359.92,0.01,0.0
1590499231.29933906,55513619,-0.03,-0.42,14.99,30.67,0.0,359.88,0.01,0.0
1590499231.33932304,55553603,0.04,-0.44,14.99,30.53,0.0,359.84000000000003,0.01,0.0
1590499231.37930703,55593587,0.04,-0.46,14.99,30.35,0.0,359.81,0.01,0.0
1590499231.41929102,55633571,0.09,-0.47000000000000003,14.99,30.150000000000002,0.0,359.79,0.01,0.0
1590499231.45927501,55673555,0.09,-0.48,14.99,29.93,0.0,359.79,0.01,0.0
1590499231.49925900,55713539,0.09,-0.49,14.99,29.7,0.0,359.8,0.01,0.0
1590499231.53924322,55753523,0.09,-0.49,14.99,29.46,0.0,359.81,0.01,0.0
1590499231.57922721,55793507,0.09,-0.49,14.99,29.21,0.0,359.83,0.01,0.0
1590499231.61921120,55833491,0.06,-0.48,12.85,28.96,0.0,359.86,0.01,0.0
1590499231.65919518,55873475,0.06,-0.46,12.85,28.69,0.0,359.90000000000003,0.01,0.0
1590499231.70001221,55914292,0.06,-0.43,12.85,28.39,0.0,359.93,0.01,0.0
1590499231.73999619,55954276,0.28,-0.4,10.700000000000001,28.080000000000002,0.0,359.96,0.01,0.0
1590499231.77998018,55994260,0.28,-0.37,10.700000000000001,27.75,0.0,359.97,0.01,0.0
1590499231.81996417,56034244,0.27,-0.35000000000000003,8.55,27.400000000000002,0.0,359.96,0.01,0.0
1590499231.85994816,56074228,0.27,-0.35000000000000003,8.55,26.98,0.0,359.95,0.01,0.0
1590499231.89993215,56114212,0.28,-0.36,8.55,26.53,0.0,359.92,0.01,0.0
1590499231.93991613,56154196,0.26,-0.34,6.78,26.01,0.0,359.91,0.01,0.0
1590499231.97990012,56194180,0.26,-0.32,6.78,25.44,0.0,359.91,0.01,0.0
1590499232.01988411,56234164,0.27,-0.31,6.07,24.810000000000002,0.0,359.92,0.01,0.0
1590499232.05986810,56274148,0.27,-0.29,6.07,24.09,0.0,359.94,0.01,0.0
1590499232.09985209,56314132,0.27,-0.28,6.07,23.32,0.0,359.94,0.01,0.0
1590499232.13983607,56354116,0.27,-0.25,5.44,22.52,0.0,359.94,0.01,0.0
1590499232.17982006,56394100,0.27,-0.22,5.44,21.72,0.0,359.94,0.01,0.0
1590499232.21980405,56434084,0.27,-0.2,4.83,20.92,0.0,359.94,0.01,0.0
1590499232.25978804,56474068,0.28,-0.18,4.83,20.13,0.0,359.92,0.01,0.0
1590499232.29977202,56514052,0.28,-0.17,4.83,19.36,0.0,359.90000000000003,0.01,0.0
1590499232.33975601,56554036,0.27,-0.18,4.3100000000000005,18.61,0.0,359.87,0.01,0.0
1590499232.37974000,56594020,0.27,-0.17,4.3100000000000005,17.900000000000002,0.0,359.86,0.01,0.0
1590499232.41972423,56634004,0.28,-0.16,3.77,17.22,0.0,359.84000000000003,0.01,0.0
1590499232.45970821,56673988,0.29,-0.15,3.77,16.6,0.0,359.83,0.01,0.0
1590499232.49969220,56713972,0.29,-0.15,3.77,15.99,0.0,359.81,0.01,0.0
1590499232.53967619,56753956,0.3,-0.14,3.2800000000000002,15.42,0.0,359.81,0.01,0.0
1590499232.57966018,56793940,0.3,-0.14,3.2800000000000002,14.870000000000001,0.0,359.83,0.01,0.0
1590499232.61964417,56833924,0.32,-0.13,2.7800000000000002,14.35,0.0,359.84000000000003,0.01,0.0
1590499232.65962815,56873908,0.32,-0.13,2.7800000000000002,13.86,0.0,359.85,0.01,0.0
1590499232.69961214,56913892,0.32,-0.14,2.7800000000000002,13.39,0.0,359.84000000000003,0.01,0.0
1590499232.73959613,56953876,0.33,-0.16,2.38,12.96,0.0,359.84000000000003,0.01,0.0
1590499232.77958012,56993860,0.33,-0.17,2.38,12.55,0.0,359.83,0.01,0.0
1590499232.81956410,57033844,0.35000000000000003,-0.18,2.0300000000000002,12.16,0.0,359.81,0.01,0.0
1590499232.85954809,57073828,0.35000000000000003,-0.18,2.0300000000000002,11.78,0.0,359.78000000000003,0.01,0.0
1590499232.89953208,57113812,0.35000000000000003,-0.17,2.0300000000000002,11.4,0.0,359.75,0.01,0.0
1590499232.93951607,57153796,0.38,-0.17,1.6500000000000001,11.040000000000001,0.0,359.73,0.01,0.0
1590499232.97950006,57193780,0.38,-0.18,1.6500000000000001,10.71,0.0,359.72,0.01,0.0
1590499233.01948404,57233764,0.41000000000000003,-0.19,1.3,10.42,0.0,359.71,0.01,0.0
1590499233.05946803,57273748,0.41000000000000003,-0.18,1.3,10.15,0.0,359.72,0.01,0.0
1590499233.09945202,57313732,0.41000000000000003,-0.18,1.3,9.92,0.0,359.74,0.01,0.0
1590499233.13943601,57353716,0.44,-0.16,1.01,9.71,0.0,359.78000000000003,0.01,0.0
1590499233.17941999,57393700,0.44,-0.14,1.01,9.5,0.0,359.81,0.01,0.0
1590499233.21940422,57433684,0.45,-0.12,0.73,9.290000000000001,0.0,359.83,0.01,0.0
1590499233.25938821,57473668,0.45,-0.09,0.73,9.08,0.0,359.85,0.01,0.0
1590499233.29937220,57513652,0.45,-0.06,0.73,8.870000000000001,0.0,359.87,0.01,0.0
1590499233.33935618,57553636,0.44,-0.05,0.38,8.65,0.0,359.87,0.01,0.0
1590499233.37934017,57593620,0.44,-0.03,0.38,8.45,0.0,359.85,0.01,0.0
1590499233.41932416,57633604,0.43,-0.01,0.1,8.26,0.0,359.83,0.0,0.0
1590499233.45930815,57673588,0.43,0.02,0.1,8.09,0.0,359.81,0.0,0.0
1590499233.49929214,57713572,0.43,0.05,0.1,7.930000000000001,0.0,359.8,0.0,0.0
1590499233.53927612,57753556,0.42,0.06,-0.15,7.78,0.0,359.78000000000003,0.0,0.0
1590499233.57926011,57793540,0.42,0.07,-0.15,7.63,0.0,359.77,0.0,0.0
1590499233.61924410,57833524,0.42,0.08,-0.46,7.5,0.0,359.76,0.0,0.0
1590499233.65922809,57873508,0.42,0.1,-0.46,7.37,0.0,359.76,0.0,0.0
1590499233.69921207,57913492,0.43,0.13,-0.46,7.24,0.0,359.76,0.0,0.0
1590499233.73919606,57953476,0.42,0.14,-0.75,7.1000000000000005,0.0,359.75,0.0,0.0
1590499233.78001308,57994293,0.42,0.16,-0.75,6.95,0.0,359.76,0.0,0.0
1590499233.81999707,58034277,0.42,0.19,-1.99,6.8100000000000005,0.0,359.77,0.0,0.0
1590499233.85998106,58074261,0.43,0.22,-1.99,6.66,0.0,359.8,0.0,0.0
1590499233.89996505,58114245,0.43,0.25,-1.99,6.49,0.0,359.82,0.0,0.0
1590499233.93994904,58154229,0.42,0.27,-1.27,6.32,0.0,359.84000000000003,0.0,0.0
1590499233.97993302,58194213,0.42,0.3,-1.27,6.12,0.0,359.84000000000003,0.0,0.0
1590499234.01991701,58234197,0.4,0.34,-1.51,5.93,0.0,359.83,0.0,0.0
1590499234.05990100,58274181,0.4,0.37,-1.51,5.73,0.0,359.82,0.0,0.0
1590499234.09988523,58314165,0.4,0.4,-1.51,5.51,0.0,359.83,0.0,0.0
1590499234.13986921,58354149,0.39,0.43,-1.77,5.28,0.0,359.84000000000003,0.0,0.0
1590499234.17985320,58394133,0.39,0.44,-1.77,5.0600000000000005,0.0,359.83,0.0,0.0
1590499234.21983719,58434117,0.37,0.44,-1.97,4.86,0.0,359.81,0.0,0.0
1590499234.25982118,58474101,0.37,0.43,-1.97,4.69,0.0,359.8,0.0,0.0
1590499234.29980516,58514085,0.37,0.42,-1.97,4.54,0.0,359.8,0.0,0.0
1590499234.33978915,58554069,0.36,0.42,-2.2,4.4,0.0,359.8,0.0,0.0
1590499234.37977314,58594053,0.36,0.41000000000000003,-2.2,4.28,0.0,359.8,0.0,0.0
1590499234.41975713,58634037,0.36,0.41000000000000003,-2.35,4.18,0.0,359.82,0.0,0.0
1590499234.45974112,58674021,0.36,0.4,-2.35,4.08,0.0,359.83,0.0,0.0
1590499234.49972510,58714005,0.36,0.41000000000000003,-2.35,3.97,0.0,359.84000000000003,0.0,0.0
1590499234.53970909,58753989,0.35000000000000003,0.42,-2.48,3.87,0.0,359.85,0.0,0.0
1590499234.57969308,58793973,0.35000000000000003,0.42,-2.48,3.75,0.0,359.86,0.0,0.0
1590499234.61967707,58833957,0.34,0.43,-2.65,3.63,0.0,359.86,0.0,0.0
1590499234.65966105,58873941,0.34,0.44,-2.65,3.54,0.0,359.87,0.0,0.0
1590499234.69964504,58913925,0.34,0.45,-2.65,3.44,0.0,359.88,0.0,0.0
1590499234.73962903,58953909,0.33,0.46,-2.82,3.34,0.0,359.88,0.0,0.0
1590499234.77961302,58993893,0.33,0.48,-2.82,3.24,0.0,359.88,0.0,0.0
1590499234.81959701,59033877,0.31,0.51,-3.02,3.13,0.0,359.89,0.0,0.0
1590499234.85958099,59073861,0.31,0.53,-3.02,3.0100000000000002,0.0,359.88,0.0,0.0
1590499234.89956522,59113845,0.31,0.52,-3.02,2.92,0.0,359.88,0.0,0.0
1590499234.93954921,59153829,0.3,0.52,-3.18,2.83,0.0,359.88,0.0,0.0
1590499234.97953320,59193813,0.3,0.52,-3.18,2.72,0.0,359.88,0.0,0.0
1590499235.01951718,59233797,0.29,0.52,-3.3200000000000003,2.59,0.0,359.88,0.0,0.0
1590499235.05950117,59273781,0.29,0.52,-3.3200000000000003,2.45,0.0,359.87,0.0,0.0
1590499235.09948516,59313765,0.29,0.53,-3.3200000000000003,2.32,0.0,359.87,0.0,0.0
1590499235.13946915,59353749,0.28,0.54,-3.5,2.21,0.0,359.87,0.0,0.0
1590499235.17945313,59393733,0.28,0.55,-3.5,2.09,0.0,359.89,0.0,0.0
1590499235.21943712,59433717,0.27,0.58,-3.63,1.97,0.0,359.90000000000003,0.0,0.0
1590499235.25942111,59473701,0.27,0.59,-3.63,1.86,0.0,359.92,0.0,0.0
1590499235.29940510,59513685,0.27,0.6,-3.63,1.76,0.0,359.94,0.0,0.0
1590499235.33938909,59553669,0.26,0.62,-3.7600000000000002,1.68,0.0,359.97,0.0,0.0
1590499235.37937307,59593653,0.26,0.63,-3.7600000000000002,1.59,0.0,359.98,0.0,0.0
1590499235.41935706,59633637,0.24,0.63,-3.94,1.51,0.0,359.99,0.0,0.0
1590499235.45934105,59673621,0.24,0.63,-3.94,1.42,0.0,359.99,0.0,0.0
1590499235.49932504,59713605,0.24,0.64,-3.94,1.31,0.0,359.99,0.0,0.0
1590499235.53930902,59753589,0.21,0.66,-4.07,1.21,0.0,0.0,0.0,0.0
1590499235.57929301,59793573,0.21,0.6900000000000001,-4.07,1.12,0.0,0.0,0.0,0.0
1590499235.61927700,59833557,0.19,0.6900000000000001,-4.18,1.04,0.0,0.01,0.0,0.0
1590499235.65926123,59873541,0.19,0.68,-4.18,0.96,0.0,0.01,0.0,0.0
1590499235.69924521,59913525,0.19,0.67,-4.18,0.87,0.0,0.01,0.0,0.0
1590499235.73922920,59953509,0.17,0.65,-4.24,0.79,0.0,0.0,0.0,0.0
1590499235.77921319,59993493,0.17,0.61,-4.24,0.7000000000000001,0.0,0.0,0.0,0.0
1590499235.81919718,60033477,0.16,0.58,-4.28,0.61,0.0,0.02,0.0,0.0
1590499235.86001420,60074294,0.16,0.56,-4.28,0.53,0.0,0.03,0.0,0.0
1590499235.89999819,60114278,0.16,0.54,-4.28,0.47000000000000003,0.0,0.05,0.0,0.0
1590499235.93998218,60154262,0.16,0.52,-4.32,0.41000000000000003,0.0,0.08,0.0,0.0
1590499235.97996616,60194246,0.16,0.5,-4.32,0.34,0.0,0.11,0.0,0.0
1590499236.01995015,60234230,0.14,0.48,-4.38,0.26,0.0,0.14,0.0,0.0
1590499236.05993414,60274214,0.14,0.47000000000000003,-4.38,0.17,0.0,0.16,0.0,0.0
1590499236.09991813,60314198,0.14,0.46,-4.38,0.09,0.0,0.18,0.0,0.0
1590499236.13990211,60354182,0.12,0.45,-4.5600000000000005,0.03,0.0,0.2,0.0,0.0
1590499236.17988610,60394166,0.12,0.44,-4.5600000000000005,-0.02,0.0,0.21,0.0,0.0
1590499236.21987009,60434150,0.1,0.43,-4.71,-0.08,0.0,0.21,0.0,0.0
1590499236.25985408,60474134,0.1,0.43,-4.71,-0.15,0.0,0.2,0.0,0.0
1590499236.29983807,60514118,0.1,0.42,-4.71,-0.23,0.0,0.19,0.0,0.0
1590499236.33982205,60554102,0.08,0.4,-4.88,-0.3,0.0,0.17,0.0,0.0
1590499236.37980604,60594086,0.08,0.38,-4.88,-0.38,0.0,0.16,0.0,0.0
1590499236.41979003,60634070,0.08,0.36,-5.13,-0.46,0.0,0.16,0.0,0.0
1590499236.45977402,60674054,0.08,0.34,-5.13,-0.53,0.0,0.16,0.0,0.0
1590499236.49975801,60714038,0.08,0.33,-5.13,-0.61,0.0,0.17,0.0,0.0
1590499236.53974199,60754022,0.09,0.33,-5.28,-0.6900000000000001,0.0,0.18,0.0,0.0
1590499236.57972622,60794006,0.09,0.33,-5.28,-0.76,0.0,0.19,0.0,0.0
1590499236.61971021,60833990,0.08,0.33,-5.38,-0.8300000000000001,0.0,0.19,0.0,0.0
1590499236.65969419,60873974,0.08,0.32,-5.38,-0.92,0.0,0.21,0.0,0.0
1590499236.69967818,60913958,0.08,0.32,-5.38,-1.0,0.0,0.22,0.0,0.0
1590499236.73966217,60953942,0.08,0.31,-5.48,-1.08,0.0,0.23,0.0,0.0
1590499236.77964616,60993926,0.08,0.29,-5.48,-1.16,0.0,0.23,0.0,0.0
1590499236.81963015,61033910,0.08,0.27,-5.67,-1.24,0.0,0.23,0.0,0.0
1590499236.85961413,61073894,0.08,0.25,-5.67,-1.32,0.0,0.23,0.0,0.0
1590499236.89959812,61113878,0.08,0.22,-5.67,-1.41,0.0,0.23,0.0,0.0
1590499236.93958211,61153862,0.08,0.2,-5.88,-1.51,0.0,0.23,0.0,0.0
1590499236.97956610,61193846,0.08,0.19,-5.88,-1.6,0.0,0.24,0.0,0.0
1590499237.01955009,61233830,0.08,0.19,-6.1000000000000005,-1.7,0.0,0.24,0.0,0.0
1590499237.05953407,61273814,0.08,0.19,-6.1000000000000005,-1.8,0.0,0.23,0.0,0.0
1590499237.09951806,61313798,0.08,0.2,-6.1000000000000005,-1.9100000000000001,0.0,0.24,0.0,0.0
1590499237.13950205,61353782,0.09,0.2,-6.26,-2.02,0.0,0.26,0.0,0.0
1590499237.17948604,61393766,0.09,0.22,-6.26,-2.16,0.0,0.27,0.0,0.0
1590499237.21947002,61433750,0.08,0.23,-6.390000000000001,-2.2800000000000002,0.0,0.26,0.0,0.0
1590499237.25945401,61473734,0.08,0.22,-6.390000000000001,-2.41,0.0,0.24,0.0,0.0
1590499237.29943800,61513718,0.08,0.21,-6.390000000000001,-2.54,0.0,0.21,0.0,0.0
1590499237.33942223,61553702,0.09,0.2,-6.5,-2.65,0.0,0.2,0.0,0.0
1590499237.37940621,61593686,0.09,0.2,-6.5,-2.77,0.0,0.2,0.0,0.0
1590499237.41939020,61633670,0.11,0.19,-6.59,-2.87,0.0,0.2,0.0,0.0
1590499237.45937419,61673654,0.11,0.17,-6.59,-2.98,0.0,0.21,0.0,0.0
1590499237.49935818,61713638,0.11,0.17,-6.59,-3.08,0.0,0.21,0.0,0.0
1590499237.53934216,61753622,0.13,0.17,-6.7,-3.15,0.0,0.2,0.0,0.0
1590499237.57932615,61793606,0.13,0.18,-6.7,-3.22,0.0,0.19,0.0,0.0
1590499237.61931014,61833590,0.13,0.19,-6.75,-3.29,0.0,0.19,0.0,0.0
1590499237.65929413,61873574,0.13,0.2,-6.75,-3.37,0.0,0.19,0.0,0.0
1590499237.69927812,61913558,0.13,0.2,-6.75,-3.44,0.0,0.19,0.0,0.0
1590499237.73926210,61953542,0.14,0.21,-6.8500000000000005,-3.5,0.0,0.19,0.0,0.0
1590499237.77924609,61993526,0.14,0.19,-6.8500000000000005,-3.5700000000000003,0.0,0.2,0.0,0.0
1590499237.81923008,62033510,0.14,0.16,-6.93,-3.64,0.0,0.2,0.0,0.0
1590499237.85921407,62073494,0.14,0.12,-6.93,-3.71,0.0,0.21,0.0,0.0
1590499237.89919806,62113478,0.14,0.1,-6.93,-3.81,0.0,0.22,0.0,0.0
1590499237.94001508,62154295,0.15,0.09,-6.93,-3.91,0.0,0.24,0.0,0.0
1590499237.97999907,62194279,0.15,0.08,-6.93,-4.0200000000000005,0.0,0.26,0.0,0.0
1590499238.01998305,62234263,0.15,0.08,-6.99,-4.11,0.0,0.27,0.0,0.0
1590499238.05996704,62274247,0.15,0.09,-6.99,-4.19,0.0,0.28,0.0,0.0
1590499238.09995103,62314231,0.15,0.09,-6.99,-4.25,0.0,0.27,0.0,0.0
1590499238.13993502,62354215,0.14,0.09,-7.13,-4.3,0.0,0.26,0.0,0.0
1590499238.17991900,62394199,0.14,0.09,-7.13,-4.3500000000000005,0.0,0.25,0.0,0.0
1590499238.21990299,62434183,0.13,0.1,-7.22,-4.4,0.0,0.24,0.0,0.0
1590499238.25988722,62474167,0.13,0.11,-7.22,-4.44,0.0,0.24,0.0,0.0
1590499238.29987121,62514151,0.13,0.13,-7.22,-4.48,0.0,0.24,0.0,0.0
1590499238.33985519,62554135,0.12,0.14,-7.22,-4.5200000000000005,0.0,0.25,0.0,0.0
1590499238.37983918,62594119,0.12,0.15,-7.22,-4.55,0.0,0.27,0.0,0.0
1590499238.41982317,62634103,0.11,0.14,-7.24,-4.59,0.0,0.28,0.0,0.0
1590499238.45980716,62674087,0.11,0.13,-7.24,-4.65,0.0,0.29,0.0,0.0
1590499238.49979115,62714071,0.11,0.14,-7.24,-4.7,0.0,0.31,0.0,0.0
1590499238.53977513,62754055,0.1,0.14,-7.24,-4.75,0.0,0.32,0.0,0.0
1590499238.57975912,62794039,0.1,0.14,-7.24,-4.8,0.0,0.31,0.0,0.0
1590499238.61974311,62834023,0.09,0.15,-7.23,-4.84,0.0,0.31,0.0,0.0
1590499238.65972710,62874007,0.09,0.16,-7.23,-4.87,0.0,0.3,0.0,0.0
1590499238.69971108,62913991,0.09,0.17,-7.23,-4.91,0.0,0.29,0.0,0.0
1590499238.73969507,62953975,0.08,0.18,-7.28,-4.96,0.0,0.29,0.0,0.0
1590499238.77967906,62993959,0.08,0.17,-7.28,-4.99,0.0,0.29,0.0,0.0
1590499238.81966305,63033943,0.07,0.17,-7.26,-5.01,0.0,0.3,0.0,0.0
1590499238.85964704,63073927,0.07,0.17,-7.26,-5.03,0.0,0.31,0.0,0.0
1590499238.89963102,63113911,0.07,0.17,-7.26,-5.03,0.0,0.33,0.0,0.0
1590499238.93961501,63153895,0.07,0.17,-7.28,-5.03,0.0,0.35000000000000003,0.0,0.0
1590499238.97959900,63193879,0.07,0.19,-7.28,-5.0200000000000005,0.0,0.36,0.0,0.0
1590499239.01958323,63233863,0.05,0.2,-7.36,-5.0200000000000005,0.0,0.36,0.0,0.0
1590499239.05956721,63273847,0.05,0.21,-7.36,-5.03,0.0,0.37,0.0,0.0
1590499239.09955120,63313831,0.05,0.22,-7.36,-5.05,0.0,0.37,0.0,0.0
1590499239.13953519,63353815,0.02,0.23,-7.37,-5.07,0.0,0.36,0.0,0.0
1590499239.17951918,63393799,0.02,0.23,-7.37,-5.1000000000000005,0.0,0.36,0.0,0.0
1590499239.21950316,63433783,0.01,0.22,-7.3,-5.13,0.0,0.36,0.0,0.0
1590499239.25948715,63473767,0.01,0.21,-7.3,-5.16,0.0,0.36,0.0,0.0
1590499239.29947114,63513751,0.01,0.2,-7.3,-5.21,0.0,0.35000000000000003,0.0,0.0
1590499239.33945513,63553735,0.0,0.19,-7.29,-5.25,0.0,0.35000000000000003,0.0,0.0
1590499239.37943912,63593719,0.0,0.17,-7.29,-5.29,0.0,0.35000000000000003,0.0,0.0
1590499239.41942310,63633703,0.0,0.15,-7.390000000000001,-5.33,0.0,0.35000000000000003,0.0,0.0
1590499239.45940709,63673687,0.0,0.13,-7.390000000000001,-5.36,0.0,0.36,0.0,0.0
1590499239.49939108,63713671,0.0,0.1,-7.390000000000001,-5.4,0.0,0.37,0.0,0.0
1590499239.53937507,63753655,0.01,0.07,-7.43,-5.44,0.0,0.38,0.0,0.0
1590499239.57935905,63793639,0.01,0.04,-7.43,-5.48,0.0,0.39,0.0,0.0
1590499239.61934304,63833623,0.01,0.03,-7.45,-5.5200000000000005,0.0,0.39,0.0,0.0
1590499239.65932703,63873607,0.01,0.02,-7.45,-5.55,0.0,0.39,0.0,0.0
1590499239.69931102,63913591,0.01,0.02,-7.45,-5.5600000000000005,0.0,0.37,0.0,0.0
1590499239.73929501,63953575,0.01,0.02,-7.42,-5.58,0.0,0.37,0.0,0.0
1590499239.77927899,63993559,0.01,0.01,-7.42,-5.59,0.0,0.37,0.0,0.0
1590499239.81926322,64033543,0.02,0.01,-7.46,-5.6000000000000005,0.0,0.38,0.0,0.0
1590499239.85924721,64073527,0.02,0.02,-7.46,-5.61,0.0,0.39,0.0,0.0
1590499239.89923120,64113511,0.02,0.01,-7.46,-5.62,0.0,0.39,0.0,0.0
1590499239.93921518,64153495,0.03,0.0,-7.45,-5.64,0.0,0.38,0.0,0.0
1590499239.97919917,64193479,0.03,0.0,-7.45,-5.67,0.0,0.38,0.0,0.0
1590499240.02001619,64234296,0.03,0.0,-7.4,-5.71,0.0,0.37,0.0,0.0
1590499240.06000018,64274280,0.03,0.0,-7.4,-5.76,0.0,0.37,0.0,0.0
1590499240.09998417,64314264,0.03,0.0,-7.4,-5.8,0.0,0.36,0.0,0.0
1590499240.13996816,64354248,0.04,0.0,-7.47,-5.82,0.0,0.36,0.0,0.0
1590499240.17995214,64394232,0.04,0.0,-7.47,-5.8500000000000005,0.0,0.35000000000000003,0.0,0.0
1590499240.21993613,64434216,0.05,0.0,-7.54,-5.88,0.0,0.36,0.0,0.0
1590499240.25992012,64474200,0.05,0.01,-7.54,-5.91,0.0,0.36,0.0,0.0
1590499240.29990411,64514184,0.05,0.0,-7.54,-5.95,0.0,0.36,0.0,0.0
1590499240.33988810,64554168,0.05,0.0,-7.66,-5.99,0.0,0.36,0.0,0.0
1590499240.37987208,64594152,0.05,0.0,-7.66,-6.03,0.0,0.37,0.0,0.0
1590499240.41985607,64634136,0.06,0.0,-7.73,-6.08,0.0,0.37,0.0,0.0
1590499240.45984006,64674120,0.06,0.0,-7.73,-6.12,0.0,0.37,0.0,0.0
1590499240.49982405,64714104,0.06,0.01,-7.73,-6.16,0.0,0.36,0.0,0.0
1590499240.53980803,64754088,0.06,0.03,-7.71,-6.21,0.0,0.35000000000000003,0.0,0.0
1590499240.57979202,64794072,0.06,0.04,-7.71,-6.25,0.0,0.34,0.0,0.0
1590499240.61977601,64834056,0.06,0.05,-7.62,-6.28,0.0,0.35000000000000003,0.0,0.0
1590499240.65976000,64874040,0.06,0.05,-7.62,-6.32,0.0,0.36,0.0,0.0
1590499240.69974422,64914024,0.06,0.05,-7.62,-6.3500000000000005,0.0,0.37,0.0,0.0
1590499240.73972821,64954008,0.06,0.04,-7.640000000000001,-6.38,0.0,0.38,0.0,0.0
1590499240.77971220,64993992,0.06,0.03,-7.640000000000001,-6.4,0.0,0.38,0.0,0.0
1590499240.81969619,65033976,0.06,0.02,-7.76,-6.43,0.0,0.39,0.0,0.0
1590499240.85968018,65073960,0.06,0.01,-7.76,-6.45,0.0,0.39,0.0,0.0
1590499240.89966416,65113944,0.06,0.01,-7.76,-6.47,0.0,0.39,0.0,0.0
1590499240.93964815,65153928,0.06,0.0,-7.79,-6.5,0.0,0.37,0.0,0.0
1590499240.97963214,65193912,0.06,0.0,-7.79,-6.55,0.0,0.36,0.0,0.0
1590499241.01961613,65233896,0.07,-0.02,-7.9,-6.58,0.0,0.36,0.0,0.0
1590499241.05960011,65273880,0.07,-0.03,-7.9,-6.63,0.0,0.36,0.0,0.0
1590499241.09958410,65313864,0.07,-0.04,-7.9,-6.67,0.0,0.35000000000000003,0.0,0.0
1590499241.13956809,65353848,0.08,-0.05,-8.0,-6.7,0.0,0.35000000000000003,0.0,0.0
1590499241.17955208,65393832,0.08,-0.07,-8.0,-6.74,0.0,0.35000000000000003,0.0,0.0
1590499241.21953607,65433816,0.09,-0.06,-8.09,-6.78,0.0,0.35000000000000003,0.0,0.0
1590499241.25952005,65473800,0.09,-0.06,-8.09,-6.8100000000000005,0.0,0.35000000000000003,0.0,0.0
1590499241.29950404,65513784,0.09,-0.05,-8.09,-6.84,0.0,0.35000000000000003,0.0,0.0
1590499241.33948803,65553768,0.1,-0.03,-8.13,-6.88,0.0,0.34,0.0,0.0
1590499241.37947202,65593752,0.1,-0.01,-8.13,-6.93,0.0,0.33,0.0,0.0
1590499241.41945601,65633736,0.11,0.0,-8.2,-6.98,0.0,0.34,0.0,0.0
1590499241.45943999,65673720,0.11,0.0,-8.2,-7.0200000000000005,0.0,0.35000000000000003,0.0,0.0
1590499241.49942422,65713704,0.11,0.01,-8.2,-7.05,0.0,0.36,0.0,0.0
1590499241.53940821,65753688,0.11,0.01,-8.18,-7.08,0.0,0.36,0.0,0.0
1590499241.57939219,65793672,0.11,0.02,-8.18,-7.12,0.0,0.35000000000000003,0.0,0.0
1590499241.61937618,65833656,0.11,0.03,-8.17,-7.16,0.0,0.33,0.0,0.0
1590499241.65936017,65873640,0.11,0.04,-8.17,-7.21,0.0,0.32,0.0,0.0
1590499241.69934416,65913624,0.11,0.04,-8.17,-7.24,0.0,0.32,0.0,0.0
1590499241.73932815,65953608,0.12,0.04,-8.16,-7.28,0.0,0.33,0.0,0.0
1590499241.77931213,65993592,0.12,0.04,-8.16,-7.3,0.0,0.34,0.0,0.0
1590499241.81929612,66033576,0.12,0.05,-8.18,-7.34,0.0,0.35000000000000003,0.0,0.0
1590499241.85928011,66073560,0.12,0.07,-8.18,-7.37,0.0,0.37,0.0,0.0
1590499241.89926410,66113544,0.12,0.1,-8.18,-7.4,0.0,0.39,0.0,0.0
1590499241.93924809,66153528,0.11,0.12,-8.23,-7.42,0.0,0.39,0.0,0.0
1590499241.97923207,66193512,0.11,0.13,-8.23,-7.44,0.0,0.4,0.0,0.0
1590499242.01921606,66233496,0.09,0.14,-8.21,-7.46,0.0,0.39,0.0,0.0
1590499242.05920005,66273480,0.09,0.14,-8.21,-7.46,0.0,0.39,0.0,0.0
1590499242.10001707,66314297,0.09,0.15,-8.21,-7.46,0.0,0.39,0.0,0.0
1590499242.14000106,66354281,0.08,0.15,-8.25,-7.47,0.0,0.39,0.0,0.0
1590499242.17998505,66394265,0.08,0.15,-8.25,-7.48,0.0,0.38,0.0,0.0
1590499242.21996903,66434249,0.07,0.15,-8.33,-7.51,0.0,0.37,0.0,0.0
1590499242.25995302,66474233,0.07,0.15,-8.33,-7.53,0.0,0.37,0.0,0.0
1590499242.29993701,66514217,0.07,0.15,-8.33,-7.5600000000000005,0.0,0.36,0.0,0.0
1590499242.33992100,66554201,0.06,0.15,-8.38,-7.59,0.0,0.35000000000000003,0.0,0.0
1590499242.37990522,66594185,0.06,0.14,-8.38,-7.62,0.0,0.34,0.0,0.0
1590499242.41988921,66634169,0.06,0.12,-8.43,-7.65,0.0,0.34,0.0,0.0
1590499242.45987320,66674153,0.06,0.11,-8.43,-7.67,0.0,0.35000000000000003,0.0,0.0
1590499242.49985719,66714137,0.06,0.09,-8.43,-7.69,0.0,0.36,0.0,0.0
1590499242.53984118,66754121,0.06,0.08,-8.36,-7.73,0.0,0.36,0.0,0.0
1590499242.57982516,66794105,0.06,0.07,-8.36,-7.78,0.0,0.36,0.0,0.0
1590499242.61980915,66834089,0.06,0.06,-8.19,-7.82,0.0,0.35000000000000003,0.0,0.0
1590499242.65979314,66874073,0.06,0.06,-8.19,-7.84,0.0,0.35000000000000003,0.0,0.0
1590499242.69977713,66914057,0.06,0.04,-8.19,-7.86,0.0,0.35000000000000003,0.0,0.0
1590499242.73976111,66954041,0.07,0.03,-8.09,-7.87,0.0,0.35000000000000003,0.0,0.0
1590499242.77974510,66994025,0.07,0.01,-8.09,-7.87,0.0,0.35000000000000003,0.0,0.0
1590499242.81972909,67034009,0.07,0.0,-8.040000000000001,-7.87,0.0,0.37,0.0,0.0
1590499242.85971308,67073993,0.07,-0.01,-8.040000000000001,-7.87,0.0,0.38,0.0,0.0
1590499242.89969707,67113977,0.07,-0.02,-8.040000000000001,-7.86,0.0,0.39,0.0,0.0
1590499242.93968105,67153961,0.08,-0.03,-7.9,-7.87,0.0,0.4,0.0,0.0
1590499242.97966504,67193945,0.08,-0.05,-7.9,-7.86,0.0,0.41000000000000003,0.0,0.0
1590499243.01964903,67233929,0.08,-0.06,-7.79,-7.8500000000000005,0.0,0.41000000000000003,0.0,0.0
1590499243.05963302,67273913,0.08,-0.07,-7.79,-7.83,0.0,0.4,0.0,0.0
1590499243.09961700,67313897,0.08,-0.09,-7.79,-7.8100000000000005,0.0,0.39,0.0,0.0
1590499243.13960099,67353881,0.08,-0.1,-7.67,-7.78,0.0,0.4,0.0,0.0
1590499243.17958522,67393865,0.08,-0.1,-7.67,-7.76,0.0,0.4,0.0,0.0
1590499243.21956921,67433849,0.09,-0.11,-7.65,-7.73,0.0,0.41000000000000003,0.0,0.0
1590499243.25955319,67473833,0.09,-0.11,-7.65,-7.7,0.0,0.42,0.0,0.0
1590499243.29953718,67513817,0.09,-0.12,-7.65,-7.67,0.0,0.42,0.0,0.0
1590499243.33952117,67553801,0.09,-0.12,-7.69,-7.640000000000001,0.0,0.42,0.0,0.0
1590499243.37950516,67593785,0.09,-0.13,-7.69,-7.61,0.0,0.42,0.0,0.0
1590499243.41948915,67633769,0.09,-0.13,-7.65,-7.59,0.0,0.42,0.0,0.0
1590499243.45947313,67673753,0.09,-0.13,-7.65,-7.5600000000000005,0.0,0.42,0.0,0.0
1590499243.49945712,67713737,0.09,-0.14,-7.65,-7.54,0.0,0.42,0.0,0.0
1590499243.53944111,67753721,0.1,-0.14,-7.66,-7.5200000000000005,0.0,0.41000000000000003,0.0,0.0
1590499243.57942510,67793705,0.1,-0.15,-7.66,-7.51,0.0,0.4,0.0,0.0
1590499243.61940908,67833689,0.11,-0.16,-7.6000000000000005,-7.5,0.0,0.38,0.0,0.0
1590499243.65939307,67873673,0.11,-0.17,-7.6000000000000005,-7.49,0.0,0.36,0.0,0.0
1590499243.69937706,67913657,0.11,-0.19,-7.6000000000000005,-7.48,0.0,0.35000000000000003,0.0,0.0
1590499243.73936105,67953641,0.13,-0.2,-7.55,-7.45,0.0,0.34,0.0,0.0
1590499243.77934504,67993625,0.13,-0.21,-7.55,-7.43,0.0,0.33,0.0,0.0
1590499243.81932902,68033609,0.16,-0.21,-7.59,-7.41,0.0,0.33,0.0,0.0
1590499243.85931301,68073593,0.16,-0.21,-7.59,-7.4,0.0,0.32,0.0,0.0
1590499243.89929700,68113577,0.16,-0.21,-7.59,-7.390000000000001,0.0,0.32,0.0,0.0
1590499243.93928123,68153561,0.19,-0.21,-7.640000000000001,-7.390000000000001,0.0,0.32,0.0,0.0
1590499243.97926521,68193545,0.19,-0.2,-7.640000000000001,-7.4,0.0,0.32,0.0,0.0
1590499244.01924920,68233529,0.21,-0.2,-7.67,-7.4,0.0,0.33,0.0,0.0
1590499244.05923319,68273513,0.21,-0.2,-7.67,-7.41,0.0,0.34,0.0,0.0
1590499244.09921718,68313497,0.21,-0.19,-7.67,-7.43,0.0,0.35000000000000003,0.0,0.0
1590499244.13920116,68353481,0.21,-0.18,-7.62,-7.44,0.0,0.36,0.0,0.0
1590499244.18001819,68394298,0.21,-0.17,-7.62,-7.46,0.0,0.37,0.0,0.0
1590499244.22000217,68434282,0.22,-0.15,-7.5200000000000005,-7.49,0.0,0.36,0.0,0.0
1590499244.25998616,68474266,0.22,-0.13,-7.5200000000000005,-7.53,0.0,0.36,0.0,0.0
1590499244.29997015,68514250,0.22,-0.12,-7.5200000000000005,-7.55,0.0,0.35000000000000003,0.0,0.0
1590499244.33995414,68554234,0.22,-0.1,-7.49,-7.58,0.0,0.36,0.0,0.0
1590499244.37993813,68594218,0.22,-0.09,-7.49,-7.61,0.0,0.36,0.0,0.0
1590499244.41992211,68634202,0.22,-0.07,-7.44,-7.640000000000001,0.0,0.36,0.0,0.0
1590499244.45990610,68674186,0.22,-0.07,-7.44,-7.65,0.0,0.36,0.0,0.0
1590499244.49989009,68714170,0.22,-0.07,-7.44,-7.66,0.0,0.36,0.0,0.0
1590499244.53987408,68754154,0.23,-0.06,-7.48,-7.67,0.0,0.36,0.0,0.0
1590499244.57985806,68794138,0.23,-0.06,-7.48,-7.67,0.0,0.36,0.0,0.0
1590499244.61984205,68834122,0.23,-0.05,-7.46,-7.67,0.0,0.35000000000000003,0.0,0.0
1590499244.65982604,68874106,0.23,-0.04,-7.46,-7.67,0.0,0.34,0.0,0.0
1590499244.69981003,68914090,0.23,-0.03,-7.46,-7.68,0.0,0.34,0.0,0.0
1590499244.73979402,68954074,0.24,-0.01,-7.4,-7.68,0.0,0.34,0.0,0.0
1590499244.77977800,68994058,0.24,0.0,-7.4,-7.69,0.0,0.34,0.0,0.0
1590499244.81976199,69034042,0.25,0.01,-7.34,-7.7,0.0,0.33,0.0,0.0
1590499244.85974622,69074026,0.25,0.02,-7.34,-7.72,0.0,0.31,0.0,0.0
1590499244.89973021,69114010,0.25,0.04,-7.34,-7.72,0.0,0.3,0.0,0.0
1590499244.93971419,69153994,0.26,0.05,-7.25,-7.72,0.0,0.29,0.0,0.0
1590499244.97969818,69193978,0.26,0.05,-7.25,-7.72,0.0,0.28,0.0,0.0
1590499245.01968217,69233962,0.27,0.05,-7.18,-7.72,0.0,0.27,0.0,0.0
1590499245.05966616,69273946,0.27,0.05,-7.18,-7.71,0.0,0.27,0.0,0.0
1590499245.09965014,69313930,0.27,0.05,-7.18,-7.69,0.0,0.26,0.0,0.0
1590499245.13963413,69353914,0.28,0.04,-7.12,-7.68,0.0,0.26,0.0,0.0
1590499245.17961812,69393898,0.28,0.05,-7.12,-7.67,0.0,0.26,0.0,0.0
1590499245.21960211,69433882,0.31,0.05,-7.07,-7.66,0.0,0.26,0.0,0.0
1590499245.25958610,69473866,0.31,0.05,-7.07,-7.66,0.0,0.26,0.0,0.0
1590499245.29957008,69513850,0.31,0.07,-7.07,-7.65,0.0,0.27,0.0,0.0
1590499245.33955407,69553834,0.32,0.08,-7.0200000000000005,-7.63,0.0,0.27,0.0,0.0
1590499245.37953806,69593818,0.32,0.09,-7.0200000000000005,-7.62,0.0,0.26,0.0,0.0
1590499245.41952205,69633802,0.34,0.1,-7.0,-7.61,0.0,0.26,0.0,0.0
1590499245.45950603,69673786,0.34,0.11,-7.0,-7.58,0.0,0.26,0.0,0.0
1590499245.49949002,69713770,0.34,0.13,-7.0,-7.5600000000000005,0.0,0.25,0.0,0.0
1590499245.53947401,69753754,0.36,0.14,-6.98,-7.54,0.0,0.25,0.0,0.0
1590499245.57945800,69793738,0.36,0.16,-6.98,-7.51,0.0,0.25,0.0,0.0
1590499245.61944222,69833722,0.37,0.17,-7.0,-7.48,0.0,0.25,0.0,0.0
1590499245.65942621,69873706,0.37,0.18,-7.0,-7.45,0.0,0.24,0.0,0.0
1590499245.69941020,69913690,0.37,0.2,-7.0,-7.42,0.0,0.24,0.0,0.0
1590499245.73939419,69953674,0.38,0.21,-7.05,-7.4,0.0,0.24,0.0,0.0
1590499245.77937818,69993658,0.38,0.22,-7.05,-7.38,0.0,0.25,0.0,0.0
1590499245.81936216,70033642,0.39,0.24,-7.21,-7.38,0.0,0.25,0.0,0.0
1590499245.85934615,70073626,0.39,0.26,-7.21,-7.390000000000001,0.0,0.26,0.0,0.0
1590499245.89933014,70113610,0.39,0.27,-7.21,-7.41,0.0,0.27,0.0,0.0
1590499245.93931413,70153594,0.39,0.28,-7.3,-7.43,0.0,0.27,0.0,0.0
1590499245.97929811,70193578,0.39,0.28,-7.3,-7.45,0.0,0.28,0.0,0.0
1590499246.01928210,70233562,0.39,0.28,-7.33,-7.47,0.0,0.28,0.0,0.0
1590499246.05926609,70273546,0.39,0.28,-7.33,-7.5,0.0,0.29,0.0,0.0
1590499246.09925008,70313530,0.39,0.27,-7.33,-7.53,0.0,0.29,0.0,0.0
1590499246.13923407,70353514,0.39,0.27,-7.44,-7.57,0.0,0.3,0.0,0.0
1590499246.17921805,70393498,0.39,0.28,-7.44,-7.6000000000000005,0.0,0.31,0.0,0.0
1590499246.21920204,70433482,0.39,0.29,-7.5600000000000005,-7.640000000000001,0.0,0.32,0.0,0.0
1590499246.26001906,70474299,0.39,0.31,-7.5600000000000005,-7.67,0.0,0.33,0.0,0.0
1590499246.30000305,70514283,0.39,0.32,-7.5600000000000005,-7.71,0.0,0.33,0.0,0.0
1590499246.33998704,70554267,0.38,0.32,-7.53,-7.74,0.0,0.33,0.0,0.0
1590499246.37997103,70594251,0.38,0.32,-7.53,-7.7700000000000005,0.0,0.33,0.0,0.0
1590499246.41995502,70634235,0.37,0.33,-7.55,-7.8,0.0,0.33,0.0,0.0
1590499246.45993900,70674219,0.37,0.33,-7.55,-7.84,0.0,0.32,0.0,0.0
1590499246.49992299,70714203,0.37,0.32,-7.55,-7.890000000000001,0.0,0.31,0.0,0.0
1590499246.53990722,70754187,0.36,0.3,-7.48,-7.930000000000001,0.0,0.31,0.0,0.0
1590499246.57989120,70794171,0.36,0.3,-7.48,-7.97,0.0,0.31,0.0,0.0
1590499246.61987519,70834155,0.37,0.3,-7.4,-7.99,0.0,0.31,0.0,0.0
1590499246.65985918,70874139,0.37,0.29,-7.4,-8.02,0.0,0.32,0.0,0.0
1590499246.69984317,70914123,0.37,0.29,-7.4,-8.040000000000001,0.0,0.33,0.0,0.0
1590499246.73982716,70954107,0.36,0.29,-7.3500000000000005,-8.05,0.0,0.34,0.0,0.0
1590499246.77981114,70994091,0.36,0.3,-7.3500000000000005,-8.06,0.0,0.35000000000000003,0.0,0.0
1590499246.81979513,71034075,0.37,0.31,-7.3100000000000005,-8.05,0.0,0.36,0.0,0.0
1590499246.85977912,71074059,0.37,0.33,-7.3100000000000005,-8.040000000000001,0.0,0.37,0.0,0.0
1590499246.89976311,71114043,0.37,0.36,-7.3100000000000005,-8.03,0.0,0.38,0.0,0.0
1590499246.93974710,71154027,0.36,0.38,-7.24,-8.01,0.0,0.39,0.0,0.0
1590499246.97973108,71194011,0.36,0.39,-7.24,-7.98,0.0,0.4,0.0,0.0
1590499247.01971507,71233995,0.35000000000000003,0.41000000000000003,-7.19,-7.96,0.0,0.41000000000000003,0.0,0.0
1590499247.05969906,71273979,0.35000000000000003,0.42,-7.19,-7.95,0.0,0.41000000000000003,0.0,0.0
1590499247.09968305,71313963,0.35000000000000003,0.43,-7.19,-7.930000000000001,0.0,0.42,0.0,0.0
1590499247.13966703,71353947,0.33,0.43,-7.07,-7.930000000000001,0.0,0.43,0.0,0.0
1590499247.17965102,71393931,0.33,0.43,-7.07,-7.92,0.0,0.44,0.0,0.0
1590499247.21963501,71433915,0.32,0.42,-6.98,-7.91,0.0,0.43,0.0,0.0
1590499247.25961900,71473899,0.32,0.41000000000000003,-6.98,-7.9,0.0,0.43,0.0,0.0
1590499247.29960322,71513883,0.32,0.4,-6.98,-7.890000000000001,0.0,0.44,0.0,0.0
1590499247.33958721,71553867,0.31,0.39,-6.84,-7.87,0.0,0.44,0.0,0.0
1590499247.37957120,71593851,0.31,0.39,-6.84,-7.8500000000000005,0.0,0.43,0.0,0.0
1590499247.41955519,71633835,0.31,0.38,-6.68,-7.8100000000000005,0.0,0.44,0.0,0.0
1590499247.45953918,71673819,0.31,0.37,-6.68,-7.7700000000000005,0.0,0.45,0.0,0.0
1590499247.49952316,71713803,0.31,0.35000000000000003,-6.68,-7.73,0.0,0.46,0.0,0.0
1590499247.53950715,71753787,0.31,0.34,-6.54,-7.68,0.0,0.47000000000000003,0.0,0.0
1590499247.57949114,71793771,0.31,0.33,-6.54,-7.640000000000001,0.0,0.49,0.0,0.0
1590499247.61947513,71833755,0.32,0.32,-6.43,-7.59,0.0,0.5,0.0,0.0
1590499247.65945911,71873739,0.32,0.32,-6.43,-7.55,0.0,0.52,0.0,0.0
1590499247.69944310,71913723,0.32,0.33,-6.43,-7.51,0.0,0.52,0.0,0.0
1590499247.73942709,71953707,0.31,0.34,-6.33,-7.47,0.0,0.52,0.0,0.0
1590499247.77941108,71993691,0.31,0.34,-6.33,-7.43,0.0,0.53,0.0,0.0
1590499247.81939507,72033675,0.31,0.35000000000000003,-6.3500000000000005,-7.38,0.0,0.53,0.0,0.0
1590499247.85937905,72073659,0.31,0.36,-6.3500000000000005,-7.34,0.0,0.54,0.0,0.0
1590499247.89936304,72113643,0.31,0.37,-6.3500000000000005,-7.29,0.0,0.54,0.0,0.0
1590499247.93934703,72153627,0.31,0.37,-6.3500000000000005,-7.25,0.0,0.54,0.0,0.0
1590499247.97933102,72193611,0.31,0.38,-6.3500000000000005,-7.21,0.0,0.55,0.0,0.0
1590499248.01931500,72233595,0.31,0.39,-6.41,-7.18,0.0,0.55,0.0,0.0
1590499248.05929899,72273579,0.31,0.39,-6.41,-7.140000000000001,0.0,0.55,0.0,0.0
1590499248.09928322,72313563,0.31,0.38,-6.41,-7.12,0.0,0.55,0.0,0.0
1590499248.13926721,72353547,0.31,0.37,-6.53,-7.09,0.0,0.56,0.0,0.0
1590499248.17925119,72393531,0.31,0.36,-6.53,-7.07,0.0,0.5700000000000001,0.0,0.0
1590499248.21923518,72433515,0.31,0.35000000000000003,-6.58,-7.0600000000000005,0.0,0.5700000000000001,0.0,0.0
1590499248.25921917,72473499,0.31,0.34,-6.58,-7.05,0.0,0.58,0.0,0.0
1590499248.29920316,72513483,0.31,0.33,-6.58,-7.05,0.0,0.59,0.0,0.0
1590499248.34002018,72554300,0.31,0.31,-6.66,-7.0600000000000005,0.0,0.59,0.0,0.0
1590499248.38000417,72594284,0.31,0.3,-6.66,-7.08,0.0,0.59,0.0,0.0
1590499248.41998816,72634268,0.31,0.3,-6.67,-7.11,0.0,0.59,0.0,0.0
1590499248.45997214,72674252,0.31,0.3,-6.67,-7.13,0.0,0.6,0.0,0.0
1590499248.49995613,72714236,0.31,0.29,-6.67,-7.16,0.0,0.6,0.0,0.0
1590499248.53994012,72754220,0.31,0.28,-6.62,-7.19,0.0,0.61,0.0,0.0
1590499248.57992411,72794204,0.31,0.28,-6.62,-7.21,0.0,0.62,0.0,0.0
1590499248.61990809,72834188,0.32,0.27,-6.5,-7.23,0.0,0.64,0.0,0.0
1590499248.65989208,72874172,0.32,0.27,-6.5,-7.25,0.0,0.65,0.0,0.0
1590499248.69987607,72914156,0.32,0.26,-6.5,-7.2700000000000005,0.0,0.66,0.0,0.0
1590499248.73986006,72954140,0.32,0.26,-6.41,-7.29,0.0,0.66,0.0,0.0
1590499248.77984405,72994124,0.32,0.26,-6.41,-7.3100000000000005,0.0,0.66,0.0,0.0
1590499248.81982803,73034108,0.33,0.26,-6.3,-7.32,0.0,0.66,0.0,0.0
1590499248.85981202,73074092,0.33,0.25,-6.3,-7.32,0.0,0.67,0.0,0.0
1590499248.89979601,73114076,0.33,0.25,-6.3,-7.32,0.0,0.67,0.0,0.0
1590499248.93978000,73154060,0.33,0.24,-6.19,-7.32,0.0,0.68,0.0,0.0
1590499248.97976422,73194044,0.33,0.23,-6.19,-7.33,0.0,0.6900000000000001,0.0,0.0
1590499249.01974821,73234028,0.34,0.23,-6.15,-7.32,0.0,0.6900000000000001,0.0,0.0
1590499249.05973220,73274012,0.34,0.23,-6.15,-7.29,0.0,0.7000000000000001,0.0,0.0
1590499249.09971619,73313996,0.34,0.23,-6.15,-7.26,0.0,0.7000000000000001,0.0,0.0
1590499249.13970017,73353980,0.36,0.24,-6.11,-7.22,0.0,0.71,0.0,0.0
1590499249.17968416,73393964,0.36,0.26,-6.11,-7.17,0.0,0.71,0.0,0.0
1590499249.21966815,73433948,0.36,0.27,-6.03,-7.13,0.0,0.71,0.0,0.0
1590499249.25965214,73473932,0.36,0.28,-6.03,-7.08,0.0,0.7000000000000001,0.0,0.0
1590499249.29963613,73513916,0.36,0.29,-6.03,-7.04,0.0,0.71,0.0,0.0
1590499249.33962011,73553900,0.37,0.29,-5.97,-7.0,0.0,0.71,0.0,0.0
1590499249.37960410,73593884,0.37,0.28,-5.97,-6.96,0.0,0.71,0.0,0.0
1590499249.41958809,73633868,0.38,0.28,-5.83,-6.92,0.0,0.71,0.0,0.0
1590499249.45957208,73673852,0.38,0.29,-5.83,-6.890000000000001,0.0,0.71,0.0,0.0
1590499249.49955606,73713836,0.38,0.29,-5.83,-6.86,0.0,0.7000000000000001,0.0,0.0
1590499249.53954005,73753820,0.41000000000000003,0.3,-5.8,-6.83,0.0,0.71,0.0,0.0
1590499249.57952404,73793804,0.41000000000000003,0.3,-5.8,-6.79,0.0,0.72,0.0,0.0
1590499249.61950803,73833788,0.43,0.3,-5.73,-6.7700000000000005,0.0,0.74,0.0,0.0
1590499249.65949202,73873772,0.43,0.31,-5.73,-6.76,0.0,0.76,0.0,0.0
1590499249.69947600,73913756,0.43,0.33,-5.73,-6.75,0.0,0.77,0.0,0.0
1590499249.73945999,73953740,0.45,0.34,-5.67,-6.73,0.0,0.78,0.0,0.0
1590499249.77944422,73993724,0.45,0.35000000000000003,-5.67,-6.72,0.0,0.78,0.0,0.0
1590499249.81942821,74033708,0.46,0.36,-5.6000000000000005,-6.7,0.0,0.78,0.0,0.0
1590499249.85941219,74073692,0.46,0.37,-5.6000000000000005,-6.69,0.0,0.78,0.0,0.0
1590499249.89939618,74113676,0.46,0.37,-5.6000000000000005,-6.68,0.0,0.79,0.0,0.0
1590499249.93938017,74153660,0.49,0.37,-5.5200000000000005,-6.66,0.0,0.79,0.0,0.0
1590499249.97936416,74193644,0.49,0.38,-5.5200000000000005,-6.65,0.0,0.79,0.0,0.0
1590499250.01934814,74233628,0.51,0.38,-5.44,-6.640000000000001,0.0,0.79,0.0,0.0
1590499250.05933213,74273612,0.51,0.39,-5.44,-6.62,0.0,0.79,0.0,0.0
1590499250.09931612,74313596,0.51,0.4,-5.44,-6.61,0.0,0.78,0.0,0.0
1590499250.13930011,74353580,0.54,0.41000000000000003,-5.39,-6.59,0.0,0.77,0.0,0.0
1590499250.17928410,74393564,0.54,0.42,-5.39,-6.5600000000000005,0.0,0.77,0.0,0.0
1590499250.21926808,74433548,0.59,0.43,-5.32,-6.53,0.0,0.76,0.0,0.0
1590499250.25925207,74473532,0.59,0.44,-5.32,-6.5,0.0,0.76,0.0,0.0
1590499250.29923606,74513516,0.59,0.45,-5.32,-6.48,0.0,0.76,0.0,0.0
1590499250.33922005,74553500,0.64,0.46,-5.34,-6.46,0.0,0.77,0.0,0.0
1590499250.37920403,74593484,0.64,0.47000000000000003,-5.34,-6.44,0.0,0.78,0.0,0.0
1590499250.42002106,74634301,0.68,0.48,-5.34,-6.42,0.0,0.79,0.0,0.0
1590499250.46000504,74674285,0.68,0.5,-5.34,-6.4,0.0,0.79,0.0,0.0
1590499250.49998903,74714269,0.68,0.51,-5.34,-6.37,0.0,0.8,0.0,0.0
1590499250.53997302,74754253,0.74,0.53,-5.28,-6.34,0.0,0.8,0.0,0.0
1590499250.57995701,74794237,0.74,0.54,-5.28,-6.3100000000000005,0.0,0.81,0.0,0.0
1590499250.61994100,74834221,0.8200000000000001,0.55,-5.22,-6.29,0.0,0.8200000000000001,0.0,0.0
1590499250.65992522,74874205,0.8200000000000001,0.56,-5.22,-6.29,0.0,0.84,0.0,0.0
1590499250.69990921,74914189,0.8200000000000001,0.5700000000000001,-5.22,-6.28,0.0,0.84,0.0,0.0
1590499250.73989320,74954173,0.9,0.58,-5.19,-6.2700000000000005,0.0,0.85,0.0,0.0
1590499250.77987719,74994157,0.9,0.59,-5.19,-6.26,0.0,0.87,0.0,0.0
1590499250.81986117,75034141,0.99,0.61,-5.1000000000000005,-6.25,0.0,0.89,0.0,0.0
1590499250.85984516,75074125,0.99,0.62,-5.1000000000000005,-6.23,0.0,0.89,0.0,0.0
1590499250.89982915,75114109,0.99,0.63,-5.1000000000000005,-6.21,0.0,0.9,0.0,0.0
1590499250.93981314,75154093,1.1,0.65,-5.12,-6.2,0.0,0.91,0.0,0.0
1590499250.97979712,75194077,1.1,0.66,-5.12,-6.18,0.0,0.93,0.0,0.0
1590499251.01978111,75234061,1.24,0.6900000000000001,-5.21,-6.16,0.0,0.9400000000000001,0.0,0.0
1590499251.05976510,75274045,1.24,0.71,-5.21,-6.15,0.0,0.9500000000000001,0.0,0.0
1590499251.09974909,75314029,1.24,0.73,-5.21,-6.140000000000001,0.0,0.96,0.0,0.0
1590499251.13973308,75354013,1.4000000000000001,0.75,-5.2700000000000005,-6.140000000000001,0.0,0.98,0.0,0.0
1590499251.17971706,75393997,1.4000000000000001,0.77,-5.2700000000000005,-6.140000000000001,0.0,0.99,0.0,0.0
1590499251.21970105,75433981,1.6400000000000001,0.8,-5.3500000000000005,-6.140000000000001,0.0,1.01,0.0,0.0
1590499251.25968504,75473965,1.6400000000000001,0.8300000000000001,-5.3500000000000005,-6.13,0.0,1.02,0.0,0.0
1590499251.29966903,75513949,1.6400000000000001,0.85,-5.3500000000000005,-6.140000000000001,0.0,1.03,0.0,0.0
1590499251.33965302,75553933,1.95,0.89,-5.34,-6.140000000000001,0.0,1.04,0.0,0.0
1590499251.37963700,75593917,1.95,0.93,-5.34,-6.15,0.0,1.05,0.0,0.0
1590499251.41962099,75633901,2.42,0.99,-5.38,-6.17,0.0,1.07,0.0,0.0
1590499251.45960522,75673885,2.42,1.04,-5.38,-6.18,0.0,1.08,0.0,0.0
1590499251.49958920,75713869,2.42,1.09,-5.38,-6.2,0.0,1.11,0.0,0.0
1590499251.53957319,75753853,3.23,1.1500000000000001,-5.36,-6.22,0.0,1.1300000000000001,0.0,0.0
1590499251.57955718,75793837,3.22,1.21,-5.36,-6.23,0.0,1.16,0.0,0.0
1590499251.61954117,75833821,4.69,1.28,-5.34,-6.23,0.0,1.18,0.0,0.0
1590499251.65952516,75873805,4.69,1.35,-5.34,-6.22,0.0,1.2,0.0,0.0
1590499251.69950914,75913789,4.69,1.44,-5.34,-6.2,0.0,1.23,0.0,0.0
1590499251.73949313,75953773,8.78,1.54,-5.2,-6.19,0.0,1.26,0.0,0.0
1590499251.77947712,75993757,8.78,1.6500000000000001,-5.2,-6.18,0.0,1.3,0.0,0.0
1590499251.81946111,76033741,34.85,1.8,-4.99,-6.17,0.0,1.34,0.0,0.0
1590499251.85944510,76073725,34.85,1.99,-4.99,-6.15,0.0,1.3900000000000001,0.0,0.0
1590499251.89942908,76113709,34.85,2.2800000000000002,-4.99,-6.13,0.0,1.47,0.0,0.0
1590499251.93941307,76153693,-38.35,2.71,-4.82,-6.12,0.0,1.59,0.0,0.0
1590499251.97939706,76193677,-38.35,3.2,-4.82,-6.11,0.0,1.72,0.0,0.0
1590499252.01938105,76233661,-38.410000000000004,3.61,-4.72,-6.09,0.0,1.81,0.0,0.01
1590499252.05936503,76273645,-38.42,3.85,-4.72,-6.0600000000000005,0.0,1.84,0.0,0.01
1590499252.09934902,76313629,-38.42,3.86,-4.72,-6.03,0.0,1.81,0.0,0.01
1590499252.13933301,76353613,-38.49,3.63,-4.54,-5.99,0.0,1.73,0.0,0.0
1590499252.17931700,76393597,-38.5,3.16,-4.54,-5.94,0.0,1.6,0.0,0.0
1590499252.21930122,76433581,-38.59,2.46,-4.44,-5.89,0.0,1.44,0.0,0.01
1590499252.25928521,76473565,-38.59,1.55,-4.44,-5.83,0.0,1.27,0.0,0.01
1590499252.29926920,76513549,-38.59,0.44,-4.44,-5.76,0.0,1.1,0.0,0.01
1590499252.33925319,76553533,-38.69,-0.8200000000000001,-4.3500000000000005,-5.69,0.0,0.92,0.0,0.03
1590499252.37923717,76593517,-38.69,-2.24,-4.3500000000000005,-5.62,0.0,0.75,0.0,0.03
1590499252.41922116,76633501,-38.78,-3.79,-4.2,-5.57,0.0,0.6,0.0,0.04
1590499252.45920515,76673485,-38.78,-5.43,-4.2,-5.53,0.0,0.45,0.0,0.04
1590499252.50002217,76714302,-38.78,-7.21,-4.2,-5.49,0.0,0.31,0.0,0.04
1590499252.54000616,76754286,-38.85,-9.03,-4.03,-5.45,0.0,0.18,0.0,0.06
1590499252.57999015,76794270,-38.85,-10.89,-4.03,-5.41,0.0,0.03,0.0,0.06
1590499252.61997414,76834254,-38.9,-12.77,-3.86,-5.36,0.0,359.89,0.0,0.08
1590499252.65995812,76874238,-38.9,-14.66,-3.86,-5.3100000000000005,0.0,359.73,0.0,0.08
1590499252.69994211,76914222,-38.910000000000004,-16.55,-3.86,-5.26,0.0,359.55,0.0,0.08
1590499252.73992610,76954206,-38.95,-18.42,-3.77,-5.2,0.0,359.34000000000003,0.0,0.09
1590499252.77991009,76994190,-38.96,-20.25,-3.77,-5.14,0.0,359.1,0.0,0.09
1590499252.81989408,77034174,-39.01,-22.04,-3.68,-5.05,0.0,358.84000000000003,0.01,0.09
1590499252.85987806,77074158,-39.02,-23.76,-3.68,-4.94,0.0,358.55,0.01,0.09
1590499252.89986205,77114142,-39.03,-25.41,-3.68,-4.8100000000000005,0.0,358.21,0.01,0.09
1590499252.93984604,77154126,-39.1,-26.97,-3.58,-4.66,0.0,357.82,0.01,0.1
1590499252.97983003,77194110,-39.11,-28.46,-3.58,-4.5,0.0,357.39,0.01,0.1
1590499253.01981401,77234094,-39.18,-29.88,-3.43,-4.32,0.0,356.92,0.01,0.1
1590499253.05979800,77274078,-39.19,-31.2,-3.43,-4.13,0.0,356.40000000000003,0.01,0.1
1590499253.09978223,77314062,-39.2,-32.42,-3.43,-3.94,0.0,355.83,0.01,0.1
1590499253.13976622,77354046,-39.300000000000004,-33.55,-3.35,-3.72,0.0,355.21,0.01,0.09
1590499253.17975020,77394030,-39.31,-34.6,-3.35,-3.5,0.0,354.54,0.01,0.09
1590499253.21973419,77434014,-39.44,-35.56,-3.23,-3.2600000000000002,0.0,353.82,0.01,0.08
1590499253.25971818,77473998,-39.45,-36.43,-3.23,-3.02,0.0,353.08,0.01,0.08
1590499253.29970217,77513982,-39.45,-37.25,-3.23,-2.7600000000000002,0.0,352.26,0.01,0.08
1590499253.33968616,77553966,-39.6,-38.01,-3.13,-2.5,0.0,351.40000000000003,0.01,0.07
1590499253.37967014,77593950,-39.61,-38.7,-3.13,-2.22,0.0,350.5,0.01,0.07
1590499253.41965413,77633934,-39.78,-39.33,-2.99,-1.93,0.0,349.55,0.01,0.05
1590499253.45963812,77673918,-39.79,-39.910000000000004,-2.99,-1.6400000000000001,0.0,348.56,0.01,0.05
1590499253.49962211,77713902,-39.79,-40.43,-2.99,-1.35,0.0,347.56,0.01,0.05
1590499253.53960609,77753886,-39.980000000000004,-40.89,-2.89,-1.07,0.0,346.53000000000003,0.01,0.04
1590499253.57959008,77793870,-39.980000000000004,-41.300000000000004,-2.89,-0.8,0.0,345.48,0.01,0.04
1590499253.61957407,77833854,-40.160000000000004,-41.660000000000004,-2.8000000000000003,-0.54,0.0,344.42,0.01,0.04
1590499253.65955806,77873838,-40.160000000000004,-41.97,-2.8000000000000003,-0.29,0.0,343.32,0.01,0.04
1590499253.69954205,77913822,-40.17,-42.24,-2.8000000000000003,-0.04,0.0,342.22,0.01,0.04
1590499253.73952603,77953806,-40.35,-42.5,-2.75,0.18,0.0,341.11,0.01,0.04
1590499253.77951002,77993790,-40.35,-42.72,-2.75,0.42,0.0,340.0,0.01,0.04
1590499253.81949401,78033774,-40.53,-42.92,-2.71,0.65,0.0,338.89,0.01,0.04
1590499253.85947800,78073758,-40.53,-43.1,-2.71,0.88,0.0,337.76,0.01,0.04
1590499253.89946222,78113742,-40.53,-43.27,-2.71,1.09,0.0,336.64,0.01,0.04
1590499253.93944621,78153726,-40.7,-43.43,-2.63,1.3,0.0,335.53000000000003,0.01,0.04
1590499253.97943020,78193710,-40.69,-43.56,-2.63,1.5,0.0,334.43,0.01,0.04
1590499254.01941419,78233694,-40.86,-43.69,-2.62,1.69,0.0,333.31,0.01,0.04
1590499254.05939817,78273678,-40.86,-43.77,-2.62,1.87,0.0,332.18,0.01,0.04
1590499254.09938216,78313662,-40.85,-43.83,-2.62,2.05,0.0,331.07,0.01,0.04
1590499254.13936615,78353646,-41.0,-43.87,-2.52,2.2,0.0,329.95,0.01,0.04
1590499254.17935014,78393630,-41.0,-43.92,-2.52,2.35,0.0,328.83,0.01,0.04
1590499254.21933413,78433614,-41.13,-43.97,-2.41,2.49,0.0,327.73,0.01,0.04
1590499254.25931811,78473598,-41.12,-44.01,-2.41,2.62,0.0,326.63,0.01,0.04
1590499254.29930210,78513582,-41.12,-44.04,-2.41,2.74,0.0,325.54,0.01,0.04
1590499254.33928609,78553566,-41.230000000000004,-44.06,-2.39,2.85,0.0,324.47,0.01,0.04
1590499254.37927008,78593550,-41.230000000000004,-44.07,-2.39,2.94,0.0,323.41,0.01,0.04
1590499254.41925406,78633534,-41.33,-44.08,-2.35,3.0100000000000002,0.0,322.36,0.01,0.04
1590499254.45923805,78673518,-41.33,-44.09,-2.35,3.08,0.0,321.29,0.01,0.04
1590499254.49922204,78713502,-41.32,-44.09,-2.35,3.14,0.0,320.24,0.01,0.04
1590499254.53920603,78753486,-41.410000000000004,-44.07,-2.3000000000000003,3.19,0.0,319.21,0.01,0.04
1590499254.58002305,78794303,-41.410000000000004,-44.06,-2.3000000000000003,3.25,0.0,318.15000000000003,0.01,0.04
1590499254.62000704,78834287,-41.49,-44.04,-2.29,3.2800000000000002,0.0,317.14,0.01,0.04
1590499254.65999103,78874271,-41.49,-44.01,-2.29,3.3000000000000003,0.0,316.12,0.01,0.04
1590499254.69997501,78914255,-41.49,-43.980000000000004,-2.29,3.33,0.0,315.11,0.01,0.04
1590499254.73995900,78954239,-41.56,-43.94,-2.2800000000000002,3.35,0.0,314.11,0.01,0.04
1590499254.77994323,78994223,-41.56,-43.92,-2.2800000000000002,3.37,0.0,313.12,0.01,0.04
1590499254.81992722,79034207,-41.63,-43.9,-2.2600000000000002,3.39,0.0,312.14,0.01,0.04
1590499254.85991120,79074191,-41.63,-43.87,-2.2600000000000002,3.39,0.0,311.16,0.01,0.04
1590499254.89989519,79114175,-41.64,-43.85,-2.2600000000000002,3.37,0.0,310.2,0.01,0.04
1590499254.93987918,79154159,-41.7,-43.83,-2.21,3.35,0.0,309.27,0.01,0.04
1590499254.97986317,79194143,-41.7,-43.800000000000004,-2.21,3.34,0.0,308.34000000000003,0.01,0.04
1590499255.01984715,79234127,-41.78,-43.76,-2.18,3.3200000000000003,0.0,307.42,0.01,0.04
1590499255.05983114,79274111,-41.78,-43.72,-2.18,3.3000000000000003,0.0,306.47,0.01,0.04
1590499255.09981513,79314095,-41.78,-43.67,-2.18,3.29,0.0,305.54,0.01,0.04
1590499255.13979912,79354079,-41.86,-43.62,-2.13,3.25,0.0,304.62,0.01,0.04
1590499255.17978311,79394063,-41.86,-43.58,-2.13,3.21,0.0,303.71,0.01,0.04
1590499255.21976709,79434047,-41.95,-43.54,-2.07,3.17,0.0,302.8,0.01,0.04
1590499255.25975108,79474031,-41.95,-43.49,-2.07,3.14,0.0,301.86,0.01,0.04
1590499255.29973507,79514015,-41.95,-43.45,-2.07,3.1,0.0,300.95,0.01,0.04
1590499255.33971906,79553999,-42.03,-43.410000000000004,-1.99,3.0700000000000003,0.0,300.07,0.01,0.03
1590499255.37970304,79593983,-42.04,-43.38,-1.99,3.04,0.0,299.15000000000003,0.01,0.03
