timestamp,TimeUS,Lat,Lng,Alt,RelHomeAlt,RelOriginAlt
1590579544.61999202,45033646,57.6432315,11.863000099999999,0.19999998807907104,0.08800094574689865,0.08800094574689865
1590579544.65997601,45073630,57.6432316,11.863000099999999,0.19999998807907104,0.08783456683158875,0.08783456683158875
1590579544.69995999,45113614,57.6432316,11.863000099999999,0.19999998807907104,0.08830332010984421,0.08830332010984421
1590579544.73994398,45153598,57.643231699999994,11.863000099999999,0.19999998807907104,0.08872594684362411,0.08872594684362411
1590579544.77992797,45193582,57.643231699999994,11.863000099999999,0.19999998807907104,0.08935602009296417,0.08935602009296417
1590579544.81991196,45233566,57.643231799999995,11.863000099999999,0.20999999344348907,0.09015977382659912,0.09015977382659912
1590579544.85989594,45273550,57.643231799999995,11.863000099999999,0.20999999344348907,0.09088359028100967,0.09088359028100967
1590579544.89987993,45313534,57.643231899999996,11.863000099999999,0.20999999344348907,0.09218790382146835,0.09218790382146835
1590579544.93986392,45353518,57.643231899999996,11.863000099999999,0.20999999344348907,0.09334391355514526,0.09334391355514526
1590579544.97984791,45393502,57.643232,11.863000099999999,0.20999999344348907,0.09484121948480606,0.09484121948480606
1590579545.01983190,45433486,57.643232,11.863000099999999,0.20999999344348907,0.0966082215309143,0.0966082215309143
1590579545.06064892,45474303,57.6432321,11.8630002,0.20999999344348907,0.09819439053535461,0.09819439053535461
1590579545.10063291,45514287,57.6432322,11.8630002,0.2199999988079071,0.10065194219350815,0.10065194219350815
1590579545.14061689,45554271,57.643232299999994,11.863000099999999,0.2199999988079071,0.1028369665145874,0.1028369665145874
1590579545.18060088,45594255,57.643232399999995,11.8630002,0.2199999988079071,0.10452535003423691,0.10452535003423691
1590579545.22058487,45634239,57.643232499999996,11.8630002,0.2199999988079071,0.10580189526081085,0.10580189526081085
1590579545.26056886,45674223,57.6432327,11.8630002,0.2199999988079071,0.10697208344936371,0.10697208344936371
1590579545.30055285,45714207,57.643232899999994,11.8630002,0.2199999988079071,0.10815144330263138,0.10815144330263138
1590579545.34053683,45754191,57.6432332,11.8630002,0.2199999988079071,0.10924957692623138,0.10924957692623138
1590579545.38052082,45794175,57.6432335,11.8630002,0.22999998927116394,0.11046786606311798,0.11046786606311798
1590579545.42050481,45834159,57.6432339,11.8630002,0.22999998927116394,0.11179400235414505,0.11179400235414505
1590579545.46048880,45874143,57.6432344,11.8630002,0.22999998927116394,0.1130562350153923,0.1130562350153923
1590579545.50047302,45914127,57.643234899999996,11.8630002,0.22999998927116394,0.11367624998092651,0.11367624998092651
1590579545.54045701,45954111,57.643235499999996,11.8630002,0.22999998927116394,0.11435109376907349,0.11435109376907349
1590579545.58044100,45994095,57.6432362,11.8630002,0.22999998927116394,0.11540412902832031,0.11540412902832031
1590579545.62042499,46034079,57.643237,11.8630002,0.22999998927116394,0.11678480356931686,0.11678480356931686
1590579545.66040897,46074063,57.643237899999995,11.8630002,0.22999998927116394,0.1181759461760521,0.1181759461760521
1590579545.70039296,46114047,57.6432389,11.8630002,0.23999999463558197,0.12052834779024124,0.12052834779024124
1590579545.74037695,46154031,57.64324,11.8630002,0.23999999463558197,0.12281323969364166,0.12281323969364166
1590579545.78036094,46194015,57.6432412,11.8630002,0.23999999463558197,0.1253885179758072,0.1253885179758072
1590579545.82034492,46233999,57.6432425,11.8630003,0.23999999463558197,0.12818282842636108,0.12818282842636108
1590579545.86032891,46273983,57.643243999999996,11.8630003,0.25,0.1309654414653778,0.1309654414653778
1590579545.90031290,46313967,57.6432456,11.8630003,0.25,0.1338161826133728,0.1338161826133728
1590579545.94029689,46353951,57.6432473,11.8630003,0.25,0.1366976648569107,0.1366976648569107
1590579545.98028088,46393935,57.6432492,11.8630003,0.25999999046325684,0.14016032218933105,0.14016032218933105
1590579546.02026486,46433919,57.643251199999995,11.8630003,0.25999999046325684,0.14413216710090637,0.14413216710090637
1590579546.06024885,46473903,57.6432534,11.8630003,0.25999999046325684,0.1480971872806549,0.1480971872806549
1590579546.10023284,46513887,57.6432557,11.863000399999999,0.26999998092651367,0.15224574506282806,0.15224574506282806
1590579546.14021683,46553871,57.6432581,11.863000399999999,0.26999998092651367,0.1564761847257614,0.1564761847257614
1590579546.18020082,46593855,57.6432607,11.863000399999999,0.2800000011920929,0.1606130301952362,0.1606130301952362
1590579546.22018480,46633839,57.643263499999996,11.863000399999999,0.2800000011920929,0.1647190898656845,0.1647190898656845
1590579546.26016903,46673823,57.643266399999995,11.863000399999999,0.2800000011920929,0.1690226048231125,0.1690226048231125
1590579546.30015302,46713807,57.643269399999994,11.863000399999999,0.28999999165534973,0.17324388027191162,0.17324388027191162
1590579546.34013700,46753791,57.643272599999996,11.863000399999999,0.28999999165534973,0.1777731031179428,0.1777731031179428
1590579546.38012099,46793775,57.6432759,11.863000399999999,0.29999998211860657,0.18243159353733063,0.18243159353733063
1590579546.42010498,46833759,57.643279299999996,11.863000399999999,0.29999998211860657,0.18724410235881805,0.18724410235881805
1590579546.46008897,46873743,57.643282899999996,11.8630005,0.3100000023841858,0.19237808883190155,0.19237808883190155
1590579546.50007296,46913727,57.643286599999996,11.8630005,0.3100000023841858,0.19691140949726105,0.19691140949726105
1590579546.54005694,46953711,57.6432904,11.8630005,0.3199999928474426,0.20191146433353424,0.20191146433353424
1590579546.58004093,46993695,57.6432943,11.8630005,0.3199999928474426,0.20710115134716034,0.20710115134716034
1590579546.62002492,47033679,57.6432984,11.8630005,0.32999998331069946,0.21280460059642792,0.21280460059642792
1590579546.66000891,47073663,57.6433026,11.8630005,0.32999998331069946,0.21973372995853424,0.21973372995853424
1590579546.69999290,47113647,57.6433069,11.8630005,0.3400000035762787,0.22722923755645752,0.22722923755645752
1590579546.73997688,47153631,57.6433113,11.8630005,0.3499999940395355,0.23608838021755219,0.23608838021755219
1590579546.77996087,47193615,57.643315799999996,11.8630005,0.35999998450279236,0.24618369340896606,0.24618369340896606
1590579546.81994486,47233599,57.6433204,11.8630005,0.3700000047683716,0.257301390171051,0.257301390171051
1590579546.85992885,47273583,57.6433252,11.8630005,0.3799999952316284,0.2694581151008606,0.2694581151008606
1590579546.89991283,47313567,57.64333,11.863000399999999,0.3999999761581421,0.2815259099006653,0.2815259099006653
1590579546.93989682,47353551,57.6433349,11.863000399999999,0.4099999964237213,0.2936858832836151,0.2936858832836151
1590579546.97988081,47393535,57.6433399,11.863000399999999,0.41999998688697815,0.3051703870296478,0.3051703870296478
1590579547.01986480,47433519,57.6433451,11.863000399999999,0.429999977350235,0.3160400688648224,0.3160400688648224
1590579547.05984902,47473503,57.643350299999994,11.863000399999999,0.4399999976158142,0.326668381690979,0.326668381690979
1590579547.09983301,47513487,57.6433556,11.863000399999999,0.44999998807907104,0.3364465534687042,0.3364465534687042
1590579547.14064980,47554304,57.6433611,11.863000399999999,0.4599999785423279,0.3466689884662628,0.3466689884662628
1590579547.18063402,47594288,57.6433666,11.8630003,0.4699999988079071,0.35720983147621155,0.35720983147621155
1590579547.22061801,47634272,57.6433721,11.8630003,0.47999998927116394,0.3683260381221771,0.3683260381221771
1590579547.26060200,47674256,57.643377699999995,11.8630003,0.4899999797344208,0.3797096014022827,0.3797096014022827
1590579547.30058599,47714240,57.6433834,11.8630003,0.5099999904632568,0.3907628655433655,0.3907628655433655
1590579547.34056997,47754224,57.643389199999994,11.8630003,0.5199999809265137,0.40179675817489624,0.40179675817489624
1590579547.38055396,47794208,57.643395,11.8630003,0.5299999713897705,0.4125690758228302,0.4125690758228302
1590579547.42053795,47834192,57.643400899999996,11.8630002,0.5399999618530273,0.4232019782066345,0.4232019782066345
1590579547.46052194,47874176,57.643406799999994,11.8630002,0.550000011920929,0.4338795840740204,0.4338795840740204
1590579547.50050592,47914160,57.6434128,11.8630002,0.5600000023841858,0.4431646764278412,0.4431646764278412
1590579547.54048991,47954144,57.6434188,11.8630002,0.5699999928474426,0.45223113894462585,0.45223113894462585
1590579547.58047390,47994128,57.6434248,11.8630002,0.5799999833106995,0.4605571925640106,0.4605571925640106
1590579547.62045789,48034112,57.6434309,11.863000099999999,0.5799999833106995,0.4683234691619873,0.4683234691619873
1590579547.66044188,48074096,57.6434369,11.863000099999999,0.5899999737739563,0.4759880006313324,0.4759880006313324
1590579547.70042586,48114080,57.643443,11.863000099999999,0.5999999642372131,0.4820869565010071,0.4820869565010071
1590579547.74040985,48154064,57.6434492,11.863000099999999,0.5999999642372131,0.4883492887020111,0.4883492887020111
1590579547.78039384,48194048,57.6434553,11.863000099999999,0.6100000143051147,0.49523016810417175,0.49523016810417175
1590579547.82037783,48234032,57.6434614,11.863000099999999,0.6200000047683716,0.5026940703392029,0.5026940703392029
1590579547.86036181,48274016,57.6434675,11.863000099999999,0.6299999952316284,0.5103071928024292,0.5103071928024292
1590579547.90034580,48314000,57.643473699999994,11.863000099999999,0.6299999952316284,0.5167520046234131,0.5167520046234131
1590579547.94033003,48353984,57.6434797,11.863000099999999,0.6399999856948853,0.5230937600135803,0.5230937600135803
1590579547.98031402,48393968,57.643485899999995,11.863,0.6399999856948853,0.5299400091171265,0.5299400091171265
1590579548.02029800,48433952,57.643491999999995,11.863,0.6499999761581421,0.5370197296142578,0.5370197296142578
1590579548.06028199,48473936,57.643498199999996,11.863,0.6599999666213989,0.5442272424697876,0.5442272424697876
1590579548.10026598,48513920,57.6435044,11.863,0.6699999570846558,0.5502841472625732,0.5502841472625732
1590579548.14024997,48553904,57.6435107,11.863,0.6699999570846558,0.5564279556274414,0.5564279556274414
1590579548.18023396,48593888,57.643516899999995,11.863,0.6800000071525574,0.5628377795219421,0.5628377795219421
1590579548.22021794,48633872,57.643523099999996,11.863,0.6800000071525574,0.5695075392723083,0.5695075392723083
1590579548.26020193,48673856,57.6435293,11.863,0.6899999976158142,0.5763696432113647,0.5763696432113647
1590579548.30018592,48713840,57.6435356,11.863,0.699999988079071,0.581838846206665,0.581838846206665
1590579548.34016991,48753824,57.643541799999994,11.863,0.699999988079071,0.5875335335731506,0.5875335335731506
1590579548.38015389,48793808,57.6435481,11.863,0.7099999785423279,0.5930764079093933,0.5930764079093933
1590579548.42013788,48833792,57.6435543,11.863,0.7099999785423279,0.5984271764755249,0.5984271764755249
1590579548.46012187,48873776,57.6435606,11.863,0.7199999690055847,0.6038457155227661,0.6038457155227661
1590579548.50010586,48913760,57.643566899999996,11.863,0.7199999690055847,0.6069350242614746,0.6069350242614746
1590579548.54008985,48953744,57.6435731,11.863,0.7299999594688416,0.6103077530860901,0.6103077530860901
1590579548.58007383,48993728,57.6435794,11.863,0.7299999594688416,0.6140744090080261,0.6140744090080261
1590579548.62005782,49033712,57.643585699999996,11.863,0.7299999594688416,0.6181913614273071,0.6181913614273071
1590579548.66004181,49073696,57.643592,11.863,0.7400000095367432,0.6225947141647339,0.6225947141647339
1590579548.70002580,49113680,57.6435983,11.863,0.7400000095367432,0.6259236931800842,0.6259236931800842
1590579548.74001002,49153664,57.643604599999996,11.863,0.7400000095367432,0.6296050548553467,0.6296050548553467
1590579548.77999401,49193648,57.6436109,11.863,0.75,0.6333690881729126,0.6333690881729126
1590579548.81997800,49233632,57.643617199999994,11.863,0.75,0.6372388005256653,0.6372388005256653
1590579548.85996199,49273616,57.6436235,11.863,0.7599999904632568,0.6415216326713562,0.6415216326713562
1590579548.89994597,49313600,57.6436299,11.863,0.7599999904632568,0.6456297039985657,0.6456297039985657
1590579548.93992996,49353584,57.643636199999996,11.863,0.7599999904632568,0.6499712467193604,0.6499712467193604
1590579548.97991395,49393568,57.6436425,11.863,0.7699999809265137,0.654556155204773,0.654556155204773
1590579549.01989794,49433552,57.643648799999994,11.863,0.7699999809265137,0.6593238711357117,0.6593238711357117
1590579549.05988193,49473536,57.6436552,11.863,0.7799999713897705,0.6642709970474243,0.6642709970474243
1590579549.09986591,49513520,57.6436615,11.863,0.7799999713897705,0.66785728931427,0.66785728931427
1590579549.13984990,49553504,57.6436679,11.863,0.7899999618530273,0.671786367893219,0.671786367893219
1590579549.17983389,49593488,57.6436742,11.863,0.7899999618530273,0.6757054328918457,0.6757054328918457
1590579549.22065091,49634305,57.6436807,11.863000099999999,0.7899999618530273,0.6797708868980408,0.6797708868980408
1590579549.26063490,49674289,57.643687,11.863000099999999,0.7999999523162842,0.6839613914489746,0.6839613914489746
1590579549.30061889,49714273,57.6436934,11.863000099999999,0.7999999523162842,0.6870838403701782,0.6870838403701782
1590579549.34060287,49754257,57.6436997,11.863000099999999,0.8100000023841858,0.6905168294906616,0.6905168294906616
1590579549.38058686,49794241,57.643706099999996,11.863000099999999,0.8100000023841858,0.6938914060592651,0.6938914060592651
1590579549.42057085,49834225,57.6437125,11.863000099999999,0.8100000023841858,0.6972606778144836,0.6972606778144836
1590579549.46055484,49874209,57.643718799999995,11.863000099999999,0.8199999928474426,0.7010567784309387,0.7010567784309387
1590579549.50053883,49914193,57.6437252,11.863000099999999,0.8199999928474426,0.7049849629402161,0.7049849629402161
1590579549.54052281,49954177,57.643731499999994,11.863000099999999,0.8199999928474426,0.7092491984367371,0.7092491984367371
1590579549.58050680,49994161,57.6437379,11.863000099999999,0.8299999833106995,0.7133665084838867,0.7133665084838867
1590579549.62049103,50034145,57.6437442,11.863000099999999,0.8299999833106995,0.7173649072647095,0.7173649072647095
1590579549.66047502,50074129,57.6437506,11.863000099999999,0.8399999737739563,0.7215748429298401,0.7215748429298401
1590579549.70045900,50114113,57.643757,11.863000099999999,0.8399999737739563,0.7259010672569275,0.7259010672569275
1590579549.74044299,50154097,57.643763299999996,11.863000099999999,0.8499999642372131,0.7304576635360718,0.7304576635360718
1590579549.78042698,50194081,57.6437697,11.863000099999999,0.8499999642372131,0.7357197999954224,0.7357197999954224
1590579549.82041097,50234065,57.6437761,11.863000099999999,0.85999995470047,0.7415944933891296,0.7415944933891296
1590579549.86039495,50274049,57.6437824,11.863000099999999,0.85999995470047,0.7475782036781311,0.7475782036781311
1590579549.90037894,50314033,57.643788799999996,11.863000099999999,0.8700000047683716,0.7536183595657349,0.7536183595657349
1590579549.94036293,50354017,57.6437952,11.863000099999999,0.8700000047683716,0.7597677111625671,0.7597677111625671
1590579549.98034692,50394001,57.643801499999995,11.863000099999999,0.8799999952316284,0.7660327553749084,0.7660327553749084
1590579550.02033091,50433985,57.643807699999996,11.863000099999999,0.8899999856948853,0.7722678184509277,0.7722678184509277
1590579550.06031489,50473969,57.6438141,11.863000099999999,0.8899999856948853,0.7788216471672058,0.7788216471672058
1590579550.10029888,50513953,57.6438205,11.863000099999999,0.8999999761581421,0.7856067419052124,0.7856067419052124
1590579550.14028287,50553937,57.6438269,11.863000099999999,0.9099999666213989,0.7924845218658447,0.7924845218658447
1590579550.18026686,50593921,57.643833199999996,11.863000099999999,0.9099999666213989,0.7992737293243408,0.7992737293243408
1590579550.22025084,50633905,57.6438396,11.863000099999999,0.9199999570846558,0.806018590927124,0.806018590927124
1590579550.26023483,50673889,57.643845999999996,11.863000099999999,0.9300000071525574,0.8126543760299683,0.8126543760299683
1590579550.30021882,50713873,57.6438524,11.863000099999999,0.9300000071525574,0.8181660175323486,0.8181660175323486
1590579550.34020281,50753857,57.6438588,11.863000099999999,0.9399999976158142,0.823818027973175,0.823818027973175
1590579550.38018680,50793841,57.6438652,11.863000099999999,0.9399999976158142,0.8297442197799683,0.8297442197799683
1590579550.42017102,50833825,57.643871499999996,11.863000099999999,0.949999988079071,0.8359674215316772,0.8359674215316772
1590579550.46015501,50873809,57.6438779,11.863000099999999,0.9599999785423279,0.8422561883926392,0.8422561883926392
1590579550.50013900,50913793,57.643884299999996,11.863000099999999,0.9599999785423279,0.8483308553695679,0.8483308553695679
1590579550.54012299,50953777,57.6438907,11.863000099999999,0.9699999690055847,0.8546007871627808,0.8546007871627808
1590579550.58010697,50993761,57.6438972,11.863000099999999,0.9799999594688416,0.8610373735427856,0.8610373735427856
1590579550.62009096,51033745,57.643903599999994,11.863000099999999,0.9799999594688416,0.867566704750061,0.867566704750061
1590579550.66007495,51073729,57.64391,11.863000099999999,0.9899999499320984,0.8740372061729431,0.8740372061729431
1590579550.70005894,51113713,57.643916399999995,11.863000099999999,0.9899999499320984,0.8794792294502258,0.8794792294502258
1590579550.74004292,51153697,57.6439228,11.863000099999999,1.0,0.8849963545799255,0.8849963545799255
1590579550.78002691,51193681,57.643929199999995,11.863000099999999,1.0099999904632568,0.8907618522644043,0.8907618522644043
1590579550.82001090,51233665,57.6439356,11.863000099999999,1.0099999904632568,0.8966768383979797,0.8966768383979797
1590579550.85999489,51273649,57.6439421,11.863000099999999,1.0199999809265137,0.9025087952613831,0.9025087952613831
1590579550.89997888,51313633,57.6439485,11.863000099999999,1.0199999809265137,0.9073323607444763,0.9073323607444763
1590579550.93996286,51353617,57.6439549,11.863000099999999,1.0299999713897705,0.9124488234519958,0.9124488234519958
1590579550.97994685,51393601,57.6439613,11.863000099999999,1.0299999713897705,0.9183201193809509,0.9183201193809509
1590579551.01993084,51433585,57.6439677,11.863000099999999,1.0399999618530273,0.9247816801071167,0.9247816801071167
1590579551.05991483,51473569,57.643974099999994,11.863000099999999,1.0499999523162842,0.9311606884002686,0.9311606884002686
1590579551.09989882,51513553,57.6439806,11.863000099999999,1.0499999523162842,0.9364631175994873,0.9364631175994873
1590579551.13988280,51553537,57.643986999999996,11.863000099999999,1.059999942779541,0.9418944120407104,0.9418944120407104
1590579551.17986703,51593521,57.6439934,11.863000099999999,1.059999942779541,0.9479092359542847,0.9479092359542847
1590579551.21985102,51633505,57.643999799999996,11.8630002,1.0699999332427979,0.9543973803520203,0.9543973803520203
1590579551.25983500,51673489,57.6440062,11.8630002,1.0799999237060547,0.9608118534088135,0.9608118534088135
1590579551.29981899,51713473,57.644012599999996,11.8630002,1.0799999237060547,0.9667492508888245,0.9667492508888245
1590579551.34063601,51754290,57.644019199999995,11.8630002,1.090000033378601,0.9729154109954834,0.9729154109954834
1590579551.38062000,51794274,57.6440256,11.8630002,1.090000033378601,0.9793372750282288,0.9793372750282288
1590579551.42060399,51834258,57.644031999999996,11.8630002,1.100000023841858,0.9860587120056152,0.9860587120056152
1590579551.46058798,51874242,57.6440384,11.8630002,1.1100000143051147,0.9926983714103699,0.9926983714103699
1590579551.50057197,51914226,57.644044799999996,11.8630002,1.1100000143051147,0.9989337921142578,0.9989337921142578
1590579551.54055595,51954210,57.6440512,11.8630002,1.1200000047683716,1.0052586793899536,1.0052586793899536
1590579551.58053994,51994194,57.6440576,11.8630002,1.1299999952316284,1.0119789838790894,1.0119789838790894
1590579551.62052393,52034178,57.644064,11.8630002,1.1299999952316284,1.0190033912658691,1.0190033912658691
1590579551.66050792,52074162,57.6440704,11.8630002,1.1399999856948853,1.025986671447754,1.025986671447754
1590579551.70049191,52114146,57.6440768,11.8630002,1.149999976158142,1.0324046611785889,1.0324046611785889
1590579551.74047589,52154130,57.6440832,11.8630002,1.149999976158142,1.0388075113296509,1.0388075113296509
1590579551.78045988,52194114,57.6440896,11.8630002,1.159999966621399,1.045013666152954,1.045013666152954
1590579551.82044387,52234098,57.644096,11.8630002,1.1699999570846558,1.0518070459365845,1.0518070459365845
1590579551.86042786,52274082,57.644102399999994,11.8630002,1.1799999475479126,1.0613528490066528,1.0613528490066528
1590579551.90041184,52314066,57.6441088,11.8630002,1.1899999380111694,1.0754063129425049,1.0754063129425049
1590579551.94039583,52354050,57.644115199999995,11.8630002,1.209999918937683,1.0936665534973145,1.0936665534973145
1590579551.98037982,52394034,57.6441215,11.8630002,1.2300000190734863,1.1158154010772705,1.1158154010772705
1590579552.02036381,52434018,57.6441279,11.8630002,1.2599999904632568,1.141156792640686,1.141156792640686
1590579552.06034780,52474002,57.6441343,11.8630002,1.2799999713897705,1.1688801050186157,1.1688801050186157
1590579552.10033202,52513986,57.6441406,11.863000099999999,1.309999942779541,1.196967601776123,1.196967601776123
1590579552.14031601,52553970,57.644147,11.863000099999999,1.3399999141693115,1.2263672351837158,1.2263672351837158
1590579552.18030000,52593954,57.6441534,11.863000099999999,1.3700000047683716,1.2557601928710938,1.2557601928710938
1590579552.22028399,52633938,57.644159699999996,11.863000099999999,1.399999976158142,1.2847105264663696,1.2847105264663696
1590579552.26026797,52673922,57.6441661,11.8630002,1.4299999475479126,1.3129044771194458,1.3129044771194458
1590579552.30025196,52713906,57.644172499999996,11.863000099999999,1.4499999284744263,1.3392008543014526,1.3392008543014526
1590579552.34023595,52753890,57.6441789,11.863000099999999,1.4800000190734863,1.3649502992630005,1.3649502992630005
1590579552.38021994,52793874,57.6441853,11.863000099999999,1.5099999904632568,1.3905709981918335,1.3905709981918335
1590579552.42020392,52833858,57.6441917,11.863000099999999,1.5299999713897705,1.416059970855713,1.416059970855713
1590579552.46018791,52873842,57.6441981,11.8630002,1.559999942779541,1.4412742853164673,1.4412742853164673
1590579552.50017190,52913826,57.6442045,11.8630002,1.5799999237060547,1.4665560722351074,1.4665560722351074
1590579552.54015589,52953810,57.6442109,11.8630002,1.6100000143051147,1.4918805360794067,1.4918805360794067
1590579552.58013988,52993794,57.644217299999994,11.8630002,1.6299999952316284,1.5177522897720337,1.5177522897720337
1590579552.62012386,53033778,57.6442237,11.8630002,1.659999966621399,1.544081449508667,1.544081449508667
1590579552.66010785,53073762,57.64423,11.8630002,1.6899999380111694,1.5704892873764038,1.5704892873764038
1590579552.70009184,53113746,57.6442364,11.8630002,1.709999918937683,1.5963596105575562,1.5963596105575562
1590579552.74007583,53153730,57.6442428,11.8630002,1.7400000095367432,1.622235894203186,1.622235894203186
1590579552.78005981,53193714,57.6442492,11.8630002,1.7599999904632568,1.647828221321106,1.647828221321106
1590579552.82004380,53233698,57.644255599999994,11.8630002,1.7899999618530273,1.673203706741333,1.673203706741333
1590579552.86002803,53273682,57.644262,11.8630002,1.809999942779541,1.6986644268035889,1.6986644268035889
1590579552.90001202,53313666,57.644268399999994,11.8630002,1.8399999141693115,1.724226713180542,1.724226713180542
1590579552.93999600,53353650,57.6442748,11.8630002,1.8600000143051147,1.7498047351837158,1.7498047351837158
1590579552.97997999,53393634,57.6442811,11.8630002,1.8899999856948853,1.775444507598877,1.775444507598877
1590579553.01996398,53433618,57.6442875,11.8630002,1.9199999570846558,1.8011099100112915,1.8011099100112915
1590579553.05994797,53473602,57.644293899999994,11.8630002,1.9399999380111694,1.8268606662750244,1.8268606662750244
1590579553.09993196,53513586,57.6443003,11.8630002,1.96999990940094,1.8533653020858765,1.8533653020858765
1590579553.13991594,53553570,57.644306699999994,11.8630002,1.9900000095367432,1.879780888557434,1.879780888557434
1590579553.17989993,53593554,57.6443131,11.8630002,2.0199999809265137,1.9063957929611206,1.9063957929611206
1590579553.21988392,53633538,57.644319499999995,11.8630002,2.049999952316284,1.9331833124160767,1.9331833124160767
1590579553.25986791,53673522,57.6443259,11.8630002,2.069999933242798,1.9599664211273193,1.9599664211273193
1590579553.29985189,53713506,57.644332299999995,11.8630002,2.0999999046325684,1.9874001741409302,1.9874001741409302
1590579553.33983588,53753490,57.6443387,11.8630002,2.129999876022339,2.0146684646606445,2.0146684646606445
1590579553.37981987,53793474,57.644345099999995,11.8630002,2.1599998474121094,2.0416259765625,2.0416259765625
1590579553.42063689,53834291,57.6443516,11.8630002,2.180000066757202,2.0689949989318848,2.0689949989318848
1590579553.46062088,53874275,57.644358,11.8630002,2.2100000381469727,2.095712661743164,2.095712661743164
1590579553.50060487,53914259,57.6443644,11.8630002,2.240000009536743,2.123032569885254,2.123032569885254
1590579553.54058886,53954243,57.6443708,11.8630002,2.2699999809265137,2.1501264572143555,2.1501264572143555
1590579553.58057284,53994227,57.644377199999994,11.8630002,2.2899999618530273,2.1767990589141846,2.1767990589141846
1590579553.62055683,54034211,57.6443836,11.8630002,2.319999933242798,2.203131675720215,2.203131675720215
1590579553.66054082,54074195,57.644389999999994,11.8630002,2.3399999141693115,2.2293636798858643,2.2293636798858643
1590579553.70052481,54114179,57.6443964,11.863000099999999,2.369999885559082,2.256392240524292,2.256392240524292
1590579553.74050879,54154163,57.644402799999995,11.863000099999999,2.3999998569488525,2.2832729816436768,2.2832729816436768
1590579553.78049302,54194147,57.6444092,11.863000099999999,2.429999828338623,2.310408115386963,2.310408115386963
1590579553.82047701,54234131,57.644415599999995,11.863000099999999,2.450000047683716,2.3378164768218994,2.3378164768218994
1590579553.86046100,54274115,57.644422,11.863000099999999,2.4800000190734863,2.3650386333465576,2.3650386333465576
1590579553.90044498,54314099,57.644428399999995,11.863000099999999,2.509999990463257,2.3928751945495605,2.3928751945495605
1590579553.94042897,54354083,57.6444348,11.863000099999999,2.5399999618530273,2.4205684661865234,2.4205684661865234
1590579553.98041296,54394067,57.644441199999996,11.863000099999999,2.559999942779541,2.4488658905029297,2.4488658905029297
1590579554.02039695,54434051,57.6444476,11.863000099999999,2.5899999141693115,2.4775679111480713,2.4775679111480713
1590579554.06038094,54474035,57.644453899999995,11.863000099999999,2.619999885559082,2.5059475898742676,2.5059475898742676
1590579554.10036492,54514019,57.6444604,11.863000099999999,2.6499998569488525,2.5334980487823486,2.5334980487823486
1590579554.14034891,54554003,57.6444668,11.863000099999999,2.679999828338623,2.5608103275299072,2.5608103275299072
1590579554.18033290,54593987,57.644473,11.863000099999999,2.700000047683716,2.5873827934265137,2.5873827934265137
1590579554.22031689,54633971,57.644479399999994,11.863000099999999,2.7300000190734863,2.6171717643737793,2.6171717643737793
1590579554.26030087,54673955,57.644486,11.863000099999999,2.7699999809265137,2.657862663269043,2.657862663269043
1590579554.30028486,54713939,57.6444925,11.863000099999999,2.8299999237060547,2.7198681831359863,2.7198681831359863
1590579554.34026885,54753923,57.6444991,11.863000099999999,2.929999828338623,2.812173366546631,2.812173366546631
1590579554.38025284,54793907,57.644505699999996,11.863000099999999,3.059999942779541,2.941565990447998,2.941565990447998
1590579554.42023683,54833891,57.644512299999995,11.863000099999999,3.2300000190734863,3.1111533641815186,3.1111533641815186
1590579554.46022081,54873875,57.6445188,11.863000099999999,3.43999981880188,3.3208534717559814,3.3208534717559814
1590579554.50020480,54913859,57.6445252,11.863000099999999,3.679999828338623,3.565842866897583,3.565842866897583
1590579554.54018903,54953843,57.6445314,11.863000099999999,3.9599997997283936,3.8457748889923096,3.8457748889923096
1590579554.58017302,54993827,57.6445376,11.863000099999999,4.269999980926514,4.15701150894165,4.15701150894165
1590579554.62015700,55033811,57.6445436,11.863000099999999,4.610000133514404,4.495443344116211,4.495443344116211
1590579554.66014099,55073795,57.644549399999995,11.863,4.96999979019165,4.8561272621154785,4.8561272621154785
1590579554.70012498,55113779,57.6445552,11.863,5.339999675750732,5.222265720367432,5.222265720367432
1590579554.74010897,55153763,57.6445608,11.863,5.71999979019165,5.603935718536377,5.603935718536377
1590579554.78009295,55193747,57.644566399999995,11.863,6.109999656677246,5.9996442794799805,5.9996442794799805
1590579554.82007694,55233731,57.644571799999994,11.8629999,6.519999980926514,6.406294345855713,6.406294345855713
1590579554.86006093,55273715,57.6445772,11.8629999,6.929999828338623,6.819431304931641,6.819431304931641
1590579554.90004492,55313699,57.6445826,11.862999799999999,7.349999904632568,7.233461380004883,7.233461380004883
1590579554.94002891,55353683,57.6445879,11.8629997,7.769999980926514,7.65054178237915,7.65054178237915
1590579554.98001289,55393667,57.644593199999996,11.8629997,8.1899995803833,8.072528839111328,8.072528839111328
1590579555.01999688,55433651,57.6445985,11.8629996,8.609999656677246,8.497526168823242,8.497526168823242
1590579555.05998087,55473635,57.6446037,11.862999499999999,9.039999961853027,8.921565055847168,8.921565055847168
1590579555.09996486,55513619,57.644608999999996,11.8629994,9.460000038146973,9.348357200622559,9.348357200622559
1590579555.13994884,55553603,57.6446143,11.8629993,9.889999389648438,9.771281242370605,9.771281242370605
1590579555.17993283,55593587,57.6446195,11.862999199999999,10.309999465942383,10.193774223327637,10.193774223327637
1590579555.21991682,55633571,57.644624799999995,11.8629991,10.729999542236328,10.614328384399414,10.614328384399414
1590579555.25990081,55673555,57.6446301,11.862999,11.139999389648438,11.029211044311523,11.029211044311523
1590579555.29988480,55713539,57.6446354,11.8629989,11.559999465942383,11.445956230163574,11.445956230163574
1590579555.33986902,55753523,57.6446407,11.8629988,11.969999313354492,11.854716300964355,11.854716300964355
1590579555.37985301,55793507,57.644646099999996,11.8629987,12.369999885559082,12.259378433227539,12.259378433227539
1590579555.41983700,55833491,57.644651499999995,11.8629986,12.769999504089355,12.658727645874023,12.658727645874023
1590579555.45982099,55873475,57.6446568,11.8629985,13.15999984741211,13.049559593200684,13.049559593200684
1590579555.50063801,55914292,57.644662399999994,11.862998399999999,13.569999694824219,13.4508638381958,13.4508638381958
1590579555.54062200,55954276,57.644667899999995,11.8629983,13.949999809265137,13.83138656616211,13.83138656616211
1590579555.58060598,55994260,57.644673399999995,11.8629982,14.319999694824219,14.204739570617676,14.204739570617676
1590579555.62058997,56034244,57.644678899999995,11.862998099999999,14.679999351501465,14.569380760192871,14.569380760192871
1590579555.66057396,56074228,57.6446845,11.862998,15.039999961853027,14.922032356262207,14.922032356262207
1590579555.70055795,56114212,57.6446901,11.8629979,15.389999389648438,15.272892951965332,15.272892951965332
1590579555.74054193,56154196,57.6446957,11.8629977,15.719999313354492,15.609452247619629,15.609452247619629
1590579555.78052592,56194180,57.644701399999995,11.8629976,16.049999237060547,15.936482429504395,15.936482429504395
1590579555.82050991,56234164,57.6447072,11.862997499999999,16.369998931884766,16.2525577545166,16.2525577545166
1590579555.86049390,56274148,57.644712999999996,11.8629974,16.670000076293945,16.55498504638672,16.55498504638672
1590579555.90047789,56314132,57.6447188,11.8629973,16.969999313354492,16.854507446289062,16.854507446289062
1590579555.94046187,56354116,57.6447247,11.862997199999999,17.25,17.13914680480957,17.13914680480957
1590579555.98044586,56394100,57.6447307,11.8629971,17.529998779296875,17.414188385009766,17.414188385009766
1590579556.02042985,56434084,57.644736699999996,11.862997,17.78999900817871,17.678770065307617,17.678770065307617
1590579556.06041384,56474068,57.644742699999995,11.862996899999999,18.049999237060547,17.930377960205078,17.930377960205078
1590579556.10039783,56514052,57.644748799999995,11.8629968,18.299999237060547,18.18086051940918,18.18086051940918
1590579556.14038181,56554036,57.644754899999995,11.8629967,18.529998779296875,18.41804313659668,18.41804313659668
1590579556.18036580,56594020,57.6447611,11.862996599999999,18.760000228881836,18.64695930480957,18.64695930480957
1590579556.22035003,56634004,57.6447674,11.8629965,18.979999542236328,18.867265701293945,18.867265701293945
1590579556.26033401,56673988,57.6447735,11.8629965,19.189998626708984,19.07215118408203,19.07215118408203
1590579556.30031800,56713972,57.644779799999995,11.862996299999999,19.399999618530273,19.281940460205078,19.281940460205078
1590579556.34030199,56753956,57.6447862,11.8629962,19.600000381469727,19.481515884399414,19.481515884399414
1590579556.38028598,56793940,57.644792599999995,11.8629961,19.78999900817871,19.675792694091797,19.675792694091797
1590579556.42026997,56833924,57.644799,11.862995999999999,19.979999542236328,19.86455726623535,19.86455726623535
1590579556.46025395,56873908,57.6448055,11.8629959,20.15999984741211,20.045642852783203,20.045642852783203
1590579556.50023794,56913892,57.644811999999995,11.8629958,20.34000015258789,20.228553771972656,20.228553771972656
1590579556.54022193,56953876,57.6448186,11.862995699999999,20.520000457763672,20.403961181640625,20.403961181640625
1590579556.58020592,56993860,57.6448252,11.8629956,20.689998626708984,20.57615089416504,20.57615089416504
1590579556.62018991,57033844,57.6448318,11.8629955,20.85999870300293,20.744993209838867,20.744993209838867
1590579556.66017389,57073828,57.6448385,11.862995399999999,21.020000457763672,20.908222198486328,20.908222198486328
1590579556.70015788,57113812,57.6448452,11.8629953,21.189998626708984,21.073272705078125,21.073272705078125
1590579556.74014187,57153796,57.644852,11.8629951,21.350000381469727,21.23265838623047,21.23265838623047
1590579556.78012586,57193780,57.644858799999994,11.862995,21.5,21.389806747436523,21.389806747436523
1590579556.82010984,57233764,57.644865599999996,11.8629949,21.65999984741211,21.544631958007812,21.544631958007812
1590579556.86009383,57273748,57.6448724,11.8629948,21.809999465942383,21.695388793945312,21.695388793945312
1590579556.90007782,57313732,57.6448793,11.862994599999999,21.959999084472656,21.848102569580078,21.848102569580078
1590579556.94006181,57353716,57.644886199999995,11.8629945,22.10999870300293,21.997297286987305,21.997297286987305
1590579556.98004580,57393700,57.6448932,11.8629944,22.260000228881836,22.145793914794922,22.145793914794922
1590579557.02003002,57433684,57.644900099999994,11.8629942,22.40999984741211,22.29347038269043,22.29347038269043
1590579557.06001401,57473668,57.6449071,11.8629941,22.549999237060547,22.438743591308594,22.438743591308594
1590579557.09999800,57513652,57.644914099999994,11.862993999999999,22.69999885559082,22.586034774780273,22.586034774780273
1590579557.13998199,57553636,57.6449212,11.8629939,22.850000381469727,22.730772018432617,22.730772018432617
1590579557.17996597,57593620,57.644928199999995,11.862993699999999,22.989999771118164,22.8753719329834,22.8753719329834
1590579557.21994996,57633604,57.6449353,11.8629936,23.1299991607666,23.01961898803711,23.01961898803711
1590579557.25993395,57673588,57.6449424,11.8629935,23.279998779296875,23.161869049072266,23.161869049072266
1590579557.29991794,57713572,57.6449496,11.862993399999999,23.420000076293945,23.305564880371094,23.305564880371094
1590579557.33990192,57753556,57.644956699999994,11.8629933,23.559999465942383,23.44729232788086,23.44729232788086
1590579557.37988591,57793540,57.6449639,11.8629932,23.69999885559082,23.589385986328125,23.589385986328125
1590579557.41986990,57833524,57.6449711,11.862993,23.850000381469727,23.731584548950195,23.731584548950195
1590579557.45985389,57873508,57.6449782,11.8629929,23.989999771118164,23.87226676940918,23.87226676940918
1590579557.49983788,57913492,57.6449855,11.862992799999999,24.1299991607666,24.01482391357422,24.01482391357422
1590579557.53982186,57953476,57.6449928,11.8629927,24.26999855041504,24.155662536621094,24.155662536621094
1590579557.58063889,57994293,57.6450002,11.8629926,24.420000076293945,24.300540924072266,24.300540924072266
1590579557.62062287,58034277,57.6450075,11.862992499999999,24.559999465942383,24.442394256591797,24.442394256591797
1590579557.66060686,58074261,57.6450147,11.8629924,24.69999885559082,24.582332611083984,24.582332611083984
1590579557.70059085,58114245,57.6450221,11.8629923,24.84000015258789,24.72338104248047,24.72338104248047
1590579557.74057484,58154229,57.6450294,11.862992199999999,24.979999542236328,24.861970901489258,24.861970901489258
1590579557.78055882,58194213,57.6450368,11.8629921,25.119998931884766,25.000770568847656,25.000770568847656
1590579557.82054281,58234197,57.6450441,11.862992,25.25,25.139158248901367,25.139158248901367
1590579557.86052680,58274181,57.645051499999994,11.862991899999999,25.389999389648438,25.274629592895508,25.274629592895508
1590579557.90051103,58314165,57.645058899999995,11.8629918,25.51999855041504,25.409955978393555,25.409955978393555
1590579557.94049501,58354149,57.6450664,11.8629917,25.65999984741211,25.542064666748047,25.542064666748047
1590579557.98047900,58394133,57.6450738,11.862991599999999,25.78999900817871,25.673765182495117,25.673765182495117
1590579558.02046299,58434117,57.6450812,11.8629915,25.920000076293945,25.804452896118164,25.804452896118164
1590579558.06044698,58474101,57.645088599999994,11.8629914,26.049999237060547,25.931699752807617,25.931699752807617
1590579558.10043097,58514085,57.6450962,11.8629913,26.170000076293945,26.05840492248535,26.05840492248535
1590579558.14041495,58554069,57.6451037,11.8629912,26.299999237060547,26.18191146850586,26.18191146850586
1590579558.18039894,58594053,57.645111199999995,11.8629911,26.420000076293945,26.3048152923584,26.3048152923584
1590579558.22038293,58634037,57.645118599999996,11.862991,26.53999900817871,26.42702293395996,26.42702293395996
1590579558.26036692,58674021,57.6451261,11.862991,26.65999984741211,26.546615600585938,26.546615600585938
1590579558.30035090,58714005,57.645133699999995,11.8629909,26.779998779296875,26.666915893554688,26.666915893554688
1590579558.34033489,58753989,57.6451411,11.862990799999999,26.899999618530273,26.781885147094727,26.781885147094727
1590579558.38031888,58793973,57.6451487,11.8629907,27.010000228881836,26.899499893188477,26.899499893188477
1590579558.42030287,58833957,57.645156199999995,11.8629906,27.1299991607666,27.016618728637695,27.016618728637695
1590579558.46028686,58873941,57.6451638,11.8629906,27.25,27.13092613220215,27.13092613220215
1590579558.50027084,58913925,57.645171399999995,11.862990499999999,27.35999870300293,27.246248245239258,27.246248245239258
1590579558.54025483,58953909,57.645179,11.8629904,27.469999313354492,27.358728408813477,27.358728408813477
1590579558.58023882,58993893,57.6451867,11.8629903,27.59000015258789,27.470657348632812,27.470657348632812
1590579558.62022281,59033877,57.6451943,11.8629903,27.69999885559082,27.581750869750977,27.581750869750977
1590579558.66020679,59073861,57.645201899999996,11.862990199999999,27.799999237060547,27.689891815185547,27.689891815185547
1590579558.70019102,59113845,57.645209599999994,11.8629901,27.90999984741211,27.79716682434082,27.79716682434082
1590579558.74017501,59153829,57.6452172,11.8629901,28.01999855041504,27.90167999267578,27.90167999267578
1590579558.78015900,59193813,57.645224899999995,11.86299,28.119998931884766,28.005952835083008,28.005952835083008
1590579558.82014298,59233797,57.6452326,11.86299,28.219999313354492,28.10962677001953,28.10962677001953
1590579558.86012697,59273781,57.645240199999996,11.862989899999999,28.329999923706055,28.210290908813477,28.210290908813477
1590579558.90011096,59313765,57.645247899999994,11.862989899999999,28.43000030517578,28.31020164489746,28.31020164489746
1590579558.94009495,59353749,57.6452557,11.8629898,28.51999855041504,28.406892776489258,28.406892776489258
1590579558.98007894,59393733,57.6452634,11.8629898,28.619998931884766,28.50229835510254,28.50229835510254
1590579559.02006292,59433717,57.645271099999995,11.8629897,28.709999084472656,28.596290588378906,28.596290588378906
1590579559.06004691,59473701,57.6452788,11.8629897,28.799999237060547,28.68726921081543,28.68726921081543
1590579559.10003090,59513685,57.6452866,11.862989599999999,28.889999389648438,28.777816772460938,28.777816772460938
1590579559.14001489,59553669,57.645294299999996,11.862989599999999,28.979999542236328,28.865528106689453,28.865528106689453
1590579559.17999887,59593653,57.645302099999995,11.862989599999999,29.06999969482422,28.9519100189209,28.9519100189209
1590579559.21998286,59633637,57.6453098,11.8629895,29.149999618530273,29.036996841430664,29.036996841430664
1590579559.25996685,59673621,57.6453176,11.8629895,29.229999542236328,29.119585037231445,29.119585037231445
1590579559.29995084,59713605,57.6453254,11.8629895,29.31999969482422,29.201068878173828,29.201068878173828
1590579559.33993483,59753589,57.645333199999996,11.8629894,29.399999618530273,29.280025482177734,29.280025482177734
1590579559.37991881,59793573,57.645340999999995,11.8629894,29.469999313354492,29.357807159423828,29.357807159423828
1590579559.41990280,59833557,57.6453488,11.8629894,29.549999237060547,29.434444427490234,29.434444427490234
1590579559.45988703,59873541,57.6453566,11.8629894,29.619998931884766,29.508769989013672,29.508769989013672
1590579559.49987102,59913525,57.6453645,11.8629894,29.69999885559082,29.58246612548828,29.58246612548828
1590579559.53985500,59953509,57.6453723,11.862989299999999,29.76999855041504,29.654003143310547,29.654003143310547
1590579559.57983899,59993493,57.6453802,11.862989299999999,29.84000015258789,29.72462272644043,29.72462272644043
1590579559.61982298,60033477,57.645388,11.862989299999999,29.90999984741211,29.794313430786133,29.794313430786133
1590579559.66064000,60074294,57.645396,11.862989299999999,29.979999542236328,29.86347007751465,29.86347007751465
1590579559.70062399,60114278,57.645404,11.862989299999999,30.049999237060547,29.93100929260254,29.93100929260254
1590579559.74060798,60154262,57.6454119,11.862989299999999,30.10999870300293,29.996761322021484,29.996761322021484
1590579559.78059196,60194246,57.6454197,11.862989299999999,30.17999839782715,30.062559127807617,30.062559127807617
1590579559.82057595,60234230,57.6454276,11.862989299999999,30.239999771118164,30.12821388244629,30.12821388244629
1590579559.86055994,60274214,57.6454354,11.862989299999999,30.309999465942383,30.191884994506836,30.191884994506836
1590579559.90054393,60314198,57.6454434,11.862989299999999,30.369998931884766,30.25431251525879,30.25431251525879
1590579559.94052792,60354182,57.6454513,11.862989299999999,30.42999839782715,30.3149356842041,30.3149356842041
1590579559.98051190,60394166,57.6454592,11.862989299999999,30.489999771118164,30.375301361083984,30.375301361083984
1590579560.02049589,60434150,57.6454671,11.862989299999999,30.549999237060547,30.43544578552246,30.43544578552246
1590579560.06047988,60474134,57.645475,11.862989299999999,30.60999870300293,30.493885040283203,30.493885040283203
1590579560.10046387,60514118,57.6454829,11.862989299999999,30.670000076293945,30.552600860595703,30.552600860595703
1590579560.14044785,60554102,57.6454909,11.862989299999999,30.719999313354492,30.609561920166016,30.609561920166016
1590579560.18043184,60594086,57.6454988,11.8629894,30.779998779296875,30.66639518737793,30.66639518737793
1590579560.22041583,60634070,57.6455067,11.8629894,30.84000015258789,30.722972869873047,30.722972869873047
1590579560.26039982,60674054,57.6455145,11.8629894,30.889999389648438,30.77752685546875,30.77752685546875
1590579560.30038381,60714038,57.6455225,11.8629894,30.94999885559082,30.830976486206055,30.830976486206055
1590579560.34036779,60754022,57.6455305,11.8629894,31.0,30.882680892944336,30.882680892944336
1590579560.38035202,60794006,57.6455384,11.8629894,31.049999237060547,30.933876037597656,30.933876037597656
1590579560.42033601,60833990,57.6455461,11.8629895,31.099998474121094,30.983409881591797,30.983409881591797
1590579560.46032000,60873974,57.645554,11.8629895,31.149999618530273,31.03212547302246,31.03212547302246
1590579560.50030398,60913958,57.645562,11.8629895,31.189998626708984,31.07962989807129,31.07962989807129
1590579560.54028797,60953942,57.6455699,11.8629895,31.239999771118164,31.125328063964844,31.125328063964844
1590579560.58027196,60993926,57.6455779,11.8629895,31.28999900817871,31.170663833618164,31.170663833618164
1590579560.62025595,61033910,57.6455858,11.862989599999999,31.329999923706055,31.21559715270996,31.21559715270996
1590579560.66023993,61073894,57.6455937,11.862989599999999,31.369998931884766,31.258560180664062,31.258560180664062
1590579560.70022392,61113878,57.6456017,11.862989599999999,31.420000076293945,31.300851821899414,31.300851821899414
1590579560.74020791,61153862,57.6456096,11.862989599999999,31.459999084472656,31.341100692749023,31.341100692749023
1590579560.78019190,61193846,57.645617599999994,11.8629897,31.489999771118164,31.379785537719727,31.379785537719727
1590579560.82017589,61233830,57.645625499999994,11.8629897,31.529998779296875,31.416973114013672,31.416973114013672
1590579560.86015987,61273814,57.645633499999995,11.8629897,31.56999969482422,31.452035903930664,31.452035903930664
1590579560.90014386,61313798,57.645641499999996,11.8629897,31.599998474121094,31.485408782958984,31.485408782958984
1590579560.94012785,61353782,57.6456495,11.8629897,31.6299991607666,31.516748428344727,31.516748428344727
1590579560.98011184,61393766,57.6456575,11.8629898,31.65999984741211,31.54641342163086,31.54641342163086
1590579561.02009583,61433750,57.6456654,11.8629898,31.689998626708984,31.574390411376953,31.574390411376953
1590579561.06007981,61473734,57.6456733,11.8629898,31.719999313354492,31.600065231323242,31.600065231323242
1590579561.10006380,61513718,57.6456814,11.8629898,31.739999771118164,31.624311447143555,31.624311447143555
1590579561.14004803,61553702,57.645689399999995,11.862989899999999,31.760000228881836,31.646400451660156,31.646400451660156
1590579561.18003201,61593686,57.645697399999996,11.862989899999999,31.779998779296875,31.666833877563477,31.666833877563477
1590579561.22001600,61633670,57.6457054,11.862989899999999,31.799999237060547,31.6857967376709,31.6857967376709
1590579561.25999999,61673654,57.6457134,11.862989899999999,31.81999969482422,31.702796936035156,31.702796936035156
1590579561.29998398,61713638,57.6457214,11.862989899999999,31.829999923706055,31.717708587646484,31.717708587646484
1590579561.33996797,61753622,57.645729499999995,11.86299,31.849998474121094,31.73110008239746,31.73110008239746
1590579561.37995195,61793606,57.645737499999996,11.86299,31.85999870300293,31.743947982788086,31.743947982788086
1590579561.41993594,61833590,57.6457455,11.86299,31.869998931884766,31.756412506103516,31.756412506103516
1590579561.45991993,61873574,57.6457535,11.86299,31.8799991607666,31.767454147338867,31.767454147338867
1590579561.49990392,61913558,57.6457616,11.86299,31.889999389648438,31.77701759338379,31.77701759338379
1590579561.53988791,61953542,57.645769599999994,11.86299,31.899999618530273,31.785451889038086,31.785451889038086
1590579561.57987189,61993526,57.6457777,11.86299,31.90999984741211,31.792980194091797,31.792980194091797
1590579561.61985588,62033510,57.6457857,11.8629901,31.90999984741211,31.799734115600586,31.799734115600586
1590579561.65983987,62073494,57.6457937,11.8629901,31.920000076293945,31.80524444580078,31.80524444580078
1590579561.69982386,62113478,57.645801799999994,11.8629901,31.920000076293945,31.808513641357422,31.808513641357422
1590579561.74064088,62154295,57.6458101,11.8629901,31.92999839782715,31.810617446899414,31.810617446899414
1590579561.78062487,62194279,57.6458182,11.8629901,31.92999839782715,31.811986923217773,31.811986923217773
1590579561.82060885,62234263,57.645826199999995,11.8629901,31.92999839782715,31.81265640258789,31.81265640258789
1590579561.86059284,62274247,57.645834199999996,11.8629901,31.92999839782715,31.81175994873047,31.81175994873047
1590579561.90057683,62314231,57.6458423,11.862990199999999,31.920000076293945,31.80892562866211,31.80892562866211
1590579561.94056082,62354215,57.6458504,11.862990199999999,31.920000076293945,31.805072784423828,31.805072784423828
1590579561.98054481,62394199,57.645858499999996,11.862990199999999,31.920000076293945,31.800230026245117,31.800230026245117
1590579562.02052879,62434183,57.6458666,11.862990199999999,31.90999984741211,31.794679641723633,31.794679641723633
1590579562.06051302,62474167,57.6458746,11.862990199999999,31.899999618530273,31.788267135620117,31.788267135620117
1590579562.10049701,62514151,57.645882699999994,11.862990199999999,31.899999618530273,31.78148078918457,31.78148078918457
1590579562.14048100,62554135,57.6458908,11.862990199999999,31.889999389648438,31.774112701416016,31.774112701416016
1590579562.18046498,62594119,57.6458989,11.8629903,31.8799991607666,31.766033172607422,31.766033172607422
1590579562.22044897,62634103,57.645906999999994,11.8629903,31.869998931884766,31.757421493530273,31.757421493530273
1590579562.26043296,62674087,57.645914999999995,11.8629903,31.85999870300293,31.74815559387207,31.74815559387207
1590579562.30041695,62714071,57.6459231,11.8629903,31.849998474121094,31.73741912841797,31.73741912841797
1590579562.34040093,62754055,57.6459312,11.8629903,31.84000015258789,31.72613525390625,31.72613525390625
1590579562.38038492,62794039,57.645939299999995,11.8629903,31.829999923706055,31.71449851989746,31.71449851989746
1590579562.42036891,62834023,57.6459474,11.8629904,31.81999969482422,31.702579498291016,31.702579498291016
1590579562.46035290,62874007,57.6459554,11.8629904,31.799999237060547,31.689905166625977,31.689905166625977
1590579562.50033689,62913991,57.6459634,11.8629904,31.78999900817871,31.67594337463379,31.67594337463379
1590579562.54032087,62953975,57.645971499999995,11.8629904,31.779998779296875,31.66116714477539,31.66116714477539
1590579562.58030486,62993959,57.6459796,11.8629904,31.760000228881836,31.64551544189453,31.64551544189453
1590579562.62028885,63033943,57.6459877,11.862990499999999,31.739999771118164,31.629220962524414,31.629220962524414
1590579562.66027284,63073927,57.6459957,11.862990499999999,31.729999542236328,31.61249542236328,31.61249542236328
1590579562.70025682,63113911,57.6460039,11.862990499999999,31.709999084472656,31.595001220703125,31.595001220703125
1590579562.74024081,63153895,57.646012,11.862990499999999,31.689998626708984,31.577377319335938,31.577377319335938
1590579562.78022480,63193879,57.646020099999994,11.862990499999999,31.670000076293945,31.559581756591797,31.559581756591797
1590579562.82020903,63233863,57.646028199999996,11.8629906,31.65999984741211,31.541841506958008,31.541841506958008
1590579562.86019301,63273847,57.6460362,11.8629906,31.639999389648438,31.52393341064453,31.52393341064453
1590579562.90017700,63313831,57.646044399999994,11.8629906,31.619998931884766,31.50449562072754,31.50449562072754
1590579562.94016099,63353815,57.646052499999996,11.8629906,31.599998474121094,31.484907150268555,31.484907150268555
1590579562.98014498,63393799,57.6460606,11.8629907,31.579999923706055,31.464826583862305,31.464826583862305
1590579563.02012897,63433783,57.6460686,11.8629907,31.559999465942383,31.44434928894043,31.44434928894043
1590579563.06011295,63473767,57.646076699999995,11.8629907,31.53999900817871,31.42340660095215,31.42340660095215
1590579563.10009694,63513751,57.6460848,11.862990799999999,31.51999855041504,31.400501251220703,31.400501251220703
1590579563.14008093,63553735,57.646093,11.862990799999999,31.489999771118164,31.377222061157227,31.377222061157227
1590579563.18006492,63593719,57.646101099999996,11.862990799999999,31.469999313354492,31.35335922241211,31.35335922241211
1590579563.22004890,63633703,57.6461091,11.8629909,31.439998626708984,31.329030990600586,31.329030990600586
1590579563.26003289,63673687,57.6461172,11.8629909,31.420000076293945,31.304183959960938,31.304183959960938
1590579563.30001688,63713671,57.646125299999994,11.8629909,31.389999389648438,31.27783203125,31.27783203125
1590579563.34000087,63753655,57.6461334,11.862991,31.369998931884766,31.25120735168457,31.25120735168457
1590579563.37998486,63793639,57.6461415,11.862991,31.34000015258789,31.223726272583008,31.223726272583008
1590579563.41996884,63833623,57.646149599999994,11.862991,31.309999465942383,31.195558547973633,31.195558547973633
1590579563.45995283,63873607,57.646157599999995,11.8629911,31.279998779296875,31.1669864654541,31.1669864654541
1590579563.49993682,63913591,57.6461657,11.8629911,31.25,31.138031005859375,31.138031005859375
1590579563.53992081,63953575,57.6461738,11.8629911,31.219999313354492,31.10894775390625,31.10894775390625
1590579563.57990479,63993559,57.646181899999995,11.8629912,31.189998626708984,31.07929229736328,31.07929229736328
1590579563.61988902,64033543,57.64619,11.8629912,31.15999984741211,31.04928207397461,31.04928207397461
1590579563.65987301,64073527,57.646198,11.8629912,31.1299991607666,31.019187927246094,31.019187927246094
1590579563.69985700,64113511,57.6462061,11.8629913,31.099998474121094,30.98769187927246,30.98769187927246
1590579563.73984098,64153495,57.646214199999996,11.8629913,31.06999969482422,30.956377029418945,30.956377029418945
1590579563.77982497,64193479,57.6462223,11.8629913,31.03999900817871,30.92483139038086,30.92483139038086
1590579563.82064199,64234296,57.646230499999994,11.8629914,31.010000228881836,30.892292022705078,30.892292022705078
1590579563.86062598,64274280,57.646238499999995,11.8629914,30.979999542236328,30.86016273498535,30.86016273498535
1590579563.90060997,64314264,57.6462467,11.8629914,30.939998626708984,30.826446533203125,30.826446533203125
1590579563.94059396,64354248,57.6462547,11.8629915,30.90999984741211,30.79258155822754,30.79258155822754
1590579563.98057795,64394232,57.646262799999995,11.8629915,30.869998931884766,30.758392333984375,30.758392333984375
1590579564.02056193,64434216,57.646270799999996,11.862991599999999,30.84000015258789,30.724023818969727,30.724023818969727
1590579564.06054592,64474200,57.6462788,11.862991599999999,30.799999237060547,30.689414978027344,30.689414978027344
1590579564.10052991,64514184,57.6462869,11.862991599999999,30.76999855041504,30.65282440185547,30.65282440185547
1590579564.14051390,64554168,57.646294999999995,11.8629917,30.729999542236328,30.616195678710938,30.616195678710938
1590579564.18049788,64594152,57.646302999999996,11.8629917,30.689998626708984,30.57943344116211,30.57943344116211
1590579564.22048187,64634136,57.646311,11.8629917,30.65999984741211,30.542505264282227,30.542505264282227
1590579564.26046586,64674120,57.646319,11.8629918,30.619998931884766,30.50511360168457,30.50511360168457
1590579564.30044985,64714104,57.6463271,11.8629918,30.579999923706055,30.466367721557617,30.466367721557617
1590579564.34043384,64754088,57.646335099999995,11.862991899999999,30.53999900817871,30.42729949951172,30.42729949951172
1590579564.38041782,64794072,57.646343099999996,11.862991899999999,30.5,30.387760162353516,30.387760162353516
1590579564.42040181,64834056,57.6463511,11.862991899999999,30.459999084472656,30.347848892211914,30.347848892211914
1590579564.46038580,64874040,57.6463591,11.862992,30.420000076293945,30.307540893554688,30.307540893554688
1590579564.50037003,64914024,57.6463672,11.862992,30.3799991607666,30.265365600585938,30.265365600585938
1590579564.54035401,64954008,57.646375199999994,11.8629921,30.34000015258789,30.223146438598633,30.223146438598633
1590579564.58033800,64993992,57.646383,11.8629921,30.299999237060547,30.18170738220215,30.18170738220215
1590579564.62032199,65033976,57.646390999999994,11.862992199999999,30.25,30.13910675048828,30.13910675048828
1590579564.66030598,65073960,57.646398899999994,11.862992199999999,30.209999084472656,30.096405029296875,30.096405029296875
1590579564.70028996,65113944,57.646406999999996,11.862992199999999,30.170000076293945,30.05152130126953,30.05152130126953
1590579564.74027395,65153928,57.646415,11.8629923,30.119998931884766,30.006784439086914,30.006784439086914
1590579564.78025794,65193912,57.646423,11.8629923,30.079999923706055,29.962039947509766,29.962039947509766
1590579564.82024193,65233896,57.6464309,11.8629924,30.029998779296875,29.917221069335938,29.917221069335938
1590579564.86022592,65273880,57.6464389,11.8629924,29.989999771118164,29.872127532958984,29.872127532958984
1590579564.90020990,65313864,57.6464469,11.862992499999999,29.939998626708984,29.82447052001953,29.82447052001953
1590579564.94019389,65353848,57.646454899999995,11.862992499999999,29.889999389648438,29.776845932006836,29.776845932006836
1590579564.98017788,65393832,57.646462799999995,11.8629926,29.84000015258789,29.728208541870117,29.728208541870117
1590579565.02016187,65433816,57.646470799999996,11.8629926,29.78999900817871,29.67881965637207,29.67881965637207
1590579565.06014585,65473800,57.646478699999996,11.8629926,29.739999771118164,29.62946128845215,29.62946128845215
1590579565.10012984,65513784,57.6464867,11.8629927,29.689998626708984,29.578161239624023,29.578161239624023
1590579565.14011383,65553768,57.6464947,11.8629927,29.639999389648438,29.527124404907227,29.527124404907227
1590579565.18009782,65593752,57.6465026,11.862992799999999,29.59000015258789,29.47555160522461,29.47555160522461
1590579565.22008181,65633736,57.6465106,11.862992799999999,29.53999900817871,29.42353057861328,29.42353057861328
1590579565.26006579,65673720,57.6465185,11.8629929,29.489999771118164,29.371402740478516,29.371402740478516
1590579565.30005002,65713704,57.6465265,11.8629929,29.42999839782715,29.318342208862305,29.318342208862305
1590579565.34003401,65753688,57.6465344,11.8629929,29.3799991607666,29.26528549194336,29.26528549194336
1590579565.38001800,65793672,57.6465423,11.862993,29.329999923706055,29.211721420288086,29.211721420288086
1590579565.42000198,65833656,57.646550299999994,11.862993,29.26999855041504,29.157718658447266,29.157718658447266
1590579565.45998597,65873640,57.646558199999994,11.862993099999999,29.219999313354492,29.103572845458984,29.103572845458984
1590579565.49996996,65913624,57.646566099999994,11.862993099999999,29.15999984741211,29.04716682434082,29.04716682434082
1590579565.53995395,65953608,57.646574099999995,11.8629932,29.10999870300293,28.990936279296875,28.990936279296875
1590579565.57993793,65993592,57.646581999999995,11.8629932,29.049999237060547,28.933855056762695,28.933855056762695
1590579565.61992192,66033576,57.646589899999995,11.8629933,28.989999771118164,28.876211166381836,28.876211166381836
1590579565.65990591,66073560,57.646597799999995,11.8629933,28.93000030517578,28.81873321533203,28.81873321533203
1590579565.69988990,66113544,57.646605699999995,11.8629933,28.869998931884766,28.75902557373047,28.75902557373047
1590579565.73987389,66153528,57.646613599999995,11.862993399999999,28.809999465942383,28.699796676635742,28.699796676635742
1590579565.77985787,66193512,57.646621499999995,11.862993399999999,28.760000228881836,28.640047073364258,28.640047073364258
1590579565.81984186,66233496,57.646629399999995,11.8629935,28.689998626708984,28.579959869384766,28.579959869384766
1590579565.85982585,66273480,57.646637299999995,11.8629936,28.639999389648438,28.52024269104004,28.52024269104004
